,NAME,host_identity_verified,host.name,neighbourhood.group,neighbourhood,lat,long,instant_bookable,cancellation_policy,room.type,Construction.year,price,service.fee,minimum.nights,number.of.reviews,reviews.per.month,review.rate.number,calculated.host.listings.count,availability.365
50607,Private room with Shared bath on Union Square 1,unconfirmed,Koichi,Manhattan,Gramercy,40.73535,-73.98807,FALSE,moderate,Private room,2007,"$1,200 ",$240 ,3,17,4.05,3,14,48
75950,An Urban Oasis in the Heart of Downtown Brooklyn,verified,Alicia,Brooklyn,Boerum Hill,40.68475,-73.97986,TRUE,strict,Entire home/apt,2005,"$1,200 ",$240 ,2,10,0.29,5,1,11
72038,1BR GARDEN APT 25 MIN TO MANHATTAN,verified,Anna,Brooklyn,East Flatbush,40.64569,-73.94776,FALSE,strict,Entire home/apt,2008,"$1,200 ",$240 ,30,29,0.74,4,1,326
12576,Cozy room in Chic Apt Astoria NY,verified,Raul,Queens,Astoria,40.76933,-73.91164,TRUE,moderate,Private room,2008,"$1,200 ",$240 ,1,14,0.32,4,4,94
5208,Bushwick Room w/ Private Entrance & Bathroom!,unconfirmed,Julie,Brooklyn,Bushwick,40.70322,-73.92913,TRUE,strict,Private room,2020,"$1,200 ",$240 ,1,16,0.32,1,5,30
68497,Williamsburg home away from home,verified,Dana,Brooklyn,Williamsburg,40.7079,-73.96609,FALSE,strict,Private room,2020,"$1,200 ",$240 ,7,8,0.43,4,1,0
53426,Lovely room in a quiet area w/ breakfast gratis,verified,Beth,Brooklyn,Midwood,40.62179,-73.95219,TRUE,moderate,Private room,2003,"$1,200 ",$240 ,3,102,1.36,3,3,160
99861,1.5 BATHRM SUNNY SPACIOUS ROOM BY SUBWAY,unconfirmed,Golden&Mavy,Manhattan,Harlem,40.82284,-73.95546,TRUE,strict,Private room,2011,"$1,200 ",$240 ,30,4,0.14,4,2,365
53234,Hot-Tub and King beds in Brooklyn!,verified,Jeremy,Brooklyn,Bedford-Stuyvesant,40.69493,-73.94314,TRUE,flexible,Entire home/apt,2008,"$1,200 ",$240 ,2,311,4.16,5,1,128
62610,One cozy bedroom near Verrazano bridge and ferry,unconfirmed,Chun Kit,Staten Island,Shore Acres,40.61126,-74.06789,FALSE,strict,Private room,2019,"$1,200 ",$240 ,1,5,0.59,5,1,0
20344,Lovely apartment in Williamsburg,verified,Harry,Brooklyn,Greenpoint,40.72253,-73.9435,TRUE,flexible,Private room,2020,"$1,200 ",$240 ,7,6,0.2,2,1,62
84468,Spacious West Village Studio Apt,unconfirmed,Kate,Manhattan,West Village,40.72983,-74.00557,FALSE,moderate,Entire home/apt,2021,"$1,199 ",$240 ,1,25,0.67,3,1,41
55148,1 bedroom sanctuary in Brooklyn,unconfirmed,Claire,Brooklyn,Crown Heights,40.67461,-73.96244,TRUE,strict,Entire home/apt,2007,"$1,199 ",$240 ,4,8,0.55,5,1,32
52236,"Gorgeous 2 BR, prime Bed Stuy location!",verified,Victoria,Brooklyn,Bedford-Stuyvesant,40.67977,-73.94748,TRUE,strict,Entire home/apt,2007,"$1,199 ",$240 ,3,47,3.28,3,1,44
34322,Furnished and Finished Basement Entire Place SAFE,unconfirmed,Yerddy,Bronx,Wakefield,40.89382,-73.84844,FALSE,strict,Entire home/apt,2009,"$1,199 ",$240 ,30,7,0.69,3,2,188
59680,Lovely 1 private bedroom #2,verified,Bruce,Brooklyn,Bay Ridge,40.62164,-74.02275,FALSE,strict,Private room,2010,"$1,199 ",$240 ,1,2,0.92,3,9,364
90763,"Harlem ""Hostel"" for Single Travelers",unconfirmed,Sarah-Jane,Manhattan,Harlem,40.81516,-73.94829,FALSE,strict,Shared room,2007,"$1,199 ",$240 ,2,36,1.28,4,2,88
51904,CENTERED LOCATION*7TH FLOOR*STUDIO FOR 4 PEOPLE,unconfirmed,Julia,Manhattan,Midtown,40.74846,-73.98808,FALSE,moderate,Entire home/apt,2006,"$1,199 ",$240 ,1,39,2.06,3,9,340
33344,Tempting Loft in Lovely Neighborhood,verified,Kim,Brooklyn,Bedford-Stuyvesant,40.69474,-73.95498,TRUE,moderate,Entire home/apt,2017,"$1,199 ",$240 ,10,2,0.18,4,1,24
67891,Amazing Private Room close Time Sq & Central Park.,unconfirmed,Michelle & Heddy,Manhattan,Hell's Kitchen,40.76475,-73.98902,TRUE,flexible,Private room,2015,"$1,199 ",$240 ,2,161,2.38,3,1,0
10829,#NAME?,unconfirmed,Gordon M,Manhattan,Harlem,40.82323,-73.95494,FALSE,strict,Private room,2022,"$1,199 ",$240 ,2,84,1.82,3,4,20
78105,"Harlem ""Hostel"" for Single Travelers",unconfirmed,Sarah-Jane,Manhattan,Harlem,40.81516,-73.94829,TRUE,flexible,Shared room,2007,"$1,199 ",$240 ,2,36,1.28,4,2,88
72662,#NAME?,unconfirmed,Gordon M,Manhattan,Harlem,40.82323,-73.95494,TRUE,flexible,Private room,2022,"$1,199 ",$240 ,2,84,1.82,3,4,72
34522,Super clean! 2 Bedrooms in Bensonhurst -Sleeps 8,verified,Lily,Brooklyn,Bensonhurst,40.60557,-73.99799,TRUE,strict,Entire home/apt,2010,"$1,199 ",$240 ,2,27,2.57,4,2,128
80122,Cozy 1BR Home in Upper Manhattan w/ Amenities,verified,Daniel,Manhattan,Inwood,40.86057,-73.92907,TRUE,strict,Entire home/apt,2021,"$1,199 ",$240 ,1,9,0.37,3,1,0
7489,Spacious + Modern with Yard,verified,Maria,Brooklyn,Greenpoint,40.73111,-73.95592,TRUE,flexible,Entire home/apt,2021,"$1,199 ",$240 ,3,16,0.4,1,1,224
1142,Perfect & Stylish Williamsburg Apt,unconfirmed,Jodi,Brooklyn,Williamsburg,40.70743,-73.96728,TRUE,flexible,Entire home/apt,2009,"$1,198 ",$240 ,7,69,0.85,2,1,1
60868,"Private Studio, Hudson Yards 3A",verified,Hudson,Manhattan,Hell's Kitchen,40.75609,-73.99801,TRUE,strict,Entire home/apt,2022,"$1,198 ",$240 ,2,7,0.63,4,22,173
73374,Sunny in Williamsburg: Amazing Location,unconfirmed,Zoe,Brooklyn,Williamsburg,40.71044,-73.9583,FALSE,strict,Private room,2015,"$1,198 ",$240 ,25,6,0.42,3,2,0
53510,Bright Loft Deluxe  With 3 Beds & Broadway View #5,verified,Alberto Fernando,Manhattan,Midtown,40.74795,-73.98712,FALSE,strict,Entire home/apt,2007,"$1,198 ",$240 ,1,35,3.56,2,8,248
31327,Huge Room in a huge Apartment,unconfirmed,Sam,Brooklyn,Williamsburg,40.7193,-73.95863,FALSE,flexible,Private room,2013,"$1,198 ",$240 ,4,1,0.1,2,1,157
17434,Complete apartment/room at  100th,unconfirmed,Rafael,Manhattan,East Harlem,40.78918,-73.94995,FALSE,moderate,Entire home/apt,2003,"$1,198 ",$240 ,3,18,0.49,3,2,0
32501,Private Apartment w/Sunny Balcony in Riverdale NYC,verified,Tamara & Fran,Bronx,North Riverdale,40.90329,-73.89991,TRUE,flexible,Entire home/apt,2020,"$1,198 ",$240 ,2,27,2.13,4,1,328
27793,Full mattress in the living room,unconfirmed,Iris,Queens,Rego Park,40.72826,-73.87015,FALSE,flexible,Shared room,2009,"$1,198 ",$240 ,1,11,0.55,2,4,0
67542,"15 Min  Manhattan, Safe, Clean, Quiet, Good Price",verified,Melih,Queens,Sunnyside,40.73688,-73.92231,FALSE,moderate,Shared room,2022,"$1,198 ",$240 ,30,3,0.1,3,1,0
80104,Spacious Private Bedroom in Hip Bushwick,unconfirmed,Maria,Brooklyn,Bushwick,40.69604,-73.92278,TRUE,moderate,Private room,2015,"$1,198 ",$240 ,25,6,0.24,1,1,0
96265,Master bedroom. 20 min. train to Time Square!,unconfirmed,Angelica,Manhattan,Harlem,40.81493,-73.94403,TRUE,flexible,Private room,2006,"$1,198 ",$240 ,1,67,5.39,2,2,170
95522,"Bright Modern LUX 1BR with pool, gym and sauna",unconfirmed,Olivia,Manhattan,Hell's Kitchen,40.76243,-73.99805,FALSE,moderate,Entire home/apt,2014,"$1,198 ",$240 ,1,31,2.74,3,1,84
10283,UWS Apartment and Garden Terrace,unconfirmed,Craig,Manhattan,Upper West Side,40.80268,-73.969,TRUE,flexible,Entire home/apt,2010,"$1,198 ",$240 ,4,11,0.23,4,1,175
61689,Perfect Home Away from Home in NYC!,verified,AFI Apartments,Manhattan,Upper East Side,40.77253,-73.95736,TRUE,strict,Entire home/apt,2011,"$1,197 ",$239 ,30,3,0.04,2,30,313
61823,Gorgeous Private room in NYC blocks from RUMC F1R1,unconfirmed,Aicha,Staten Island,Tompkinsville,40.6318,-74.09272,FALSE,moderate,Private room,2022,"$1,197 ",$239 ,2,3,0.37,4,10,365
88849,"PH Cozy, Clean, Close to Everything",unconfirmed,Whit,Brooklyn,Crown Heights,40.67933,-73.96219,TRUE,strict,Entire home/apt,2022,"$1,197 ",$239 ,2,16,0.48,1,1,35
8648,COZY CORNER GREENWICH VILLAGE,verified,Kristin,Manhattan,West Village,40.73267,-74.00379,TRUE,strict,Private room,2014,"$1,197 ",$239 ,3,64,1.29,2,2,289
98863,Cozy Loft Studio with Skylight!,verified,Diego,Brooklyn,Greenpoint,40.73176,-73.95525,FALSE,flexible,Entire home/apt,2020,"$1,197 ",$239 ,1,32,3.47,4,6,0
4578,Bright 1 bedroom near Columbia,unconfirmed,Albane,Manhattan,Upper West Side,40.79739,-73.96945,TRUE,moderate,Entire home/apt,2014,"$1,197 ",$239 ,3,8,0.13,1,1,113
85278,BEAUTIFUL 1bd/1bath available in Williamsburg,verified,Franco,Brooklyn,Williamsburg,40.70851,-73.95443,TRUE,flexible,Private room,2016,"$1,197 ",$239 ,4,2,0.77,5,1,167
101650,Spacious Private 1BR with more sleeping space,verified,Estie,Brooklyn,Crown Heights,40.67013,-73.94397,TRUE,strict,Entire home/apt,2005,"$1,197 ",$239 ,2,23,0.83,1,3,182
53386,Lovely two bedroom loft in NYC,unconfirmed,Veronica,Staten Island,Arrochar,40.59139,-74.07612,TRUE,strict,Entire home/apt,2012,"$1,196 ",$239 ,2,5,2.73,3,2,78
27915,Charming alcove studio in PRIME location!!,unconfirmed,Ashley,Manhattan,East Village,40.72755,-73.98755,FALSE,strict,Entire home/apt,2008,"$1,196 ",$239 ,4,1,0.05,5,1,0
96243,Newly Renovated 2B/2B Skyline & River views BBQ,verified,Juan,Manhattan,Upper West Side,40.77511,-73.99005,FALSE,moderate,Entire home/apt,2018,"$1,196 ",$239 ,2,26,2.17,2,1,2
102372,Room 4 -Sunny Cozy Room in Historic Victorian Home,unconfirmed,Elizabeth,Brooklyn,Flatbush,40.64408,-73.96979,FALSE,moderate,Private room,2017,"$1,196 ",$239 ,2,28,2.64,4,6,68
5897,Comfortable Room w/access to full apartment,verified,Talisa,Brooklyn,East Flatbush,40.64768,-73.95138,TRUE,strict,Private room,2011,"$1,196 ",$239 ,1,5,0.27,3,1,313
46127,Luxurious Large private room near LGA (#01),unconfirmed,Ajmol,Queens,East Elmhurst,40.76566,-73.87215,FALSE,moderate,Private room,2013,"$1,196 ",$239 ,1,11,7.5,4,5,78
79608,Brand New Historic Harlem Duplex Apartment,unconfirmed,Julien,Manhattan,Harlem,40.82168,-73.95161,TRUE,flexible,Entire home/apt,2005,"$1,196 ",$239 ,3,45,1.82,5,1,0
55378,"Apartment near JFK,  Subway and Beach",unconfirmed,Veronica,Queens,Arverne,40.591675,-73.790756,TRUE,flexible,Entire home/apt,2017,"$1,196 ",$239 ,3,13,4.29,5,1,27
84691,Prospect Park - Quiet 2 Room Studio,verified,Ro,Brooklyn,Prospect-Lefferts Gardens,40.65799,-73.94924,FALSE,moderate,Entire home/apt,2019,"$1,196 ",$239 ,4,15,0.49,1,2,237
81008,Sunny Spacious Room + Private Bathroom in Bushwick,unconfirmed,Tian,Brooklyn,Bushwick,40.70068,-73.92293,TRUE,moderate,Private room,2012,"$1,195 ",$239 ,3,8,0.33,3,1,0
1021,Industrial Brooklyn Loft with Tree-Lined Windows,unconfirmed,Shell,Brooklyn,Clinton Hill,40.68722,-73.96289,FALSE,flexible,Entire home/apt,2018,"$1,195 ",$239 ,1,54,0.65,5,4,364
35838,Amazing Soho Apartment,unconfirmed,Cathal,Manhattan,SoHo,40.72615,-74.00325,FALSE,strict,Entire home/apt,2014,"$1,195 ",$239 ,4,1,0.1,2,1,7
88364,Cozy private room and bathroom in Brooklyn,unconfirmed,Eric,Brooklyn,Sunset Park,40.64293,-74.01786,TRUE,strict,Private room,2020,"$1,195 ",$239 ,3,106,3.06,1,1,3
83036,Private room in Williamsburg with patio,verified,Alyssa,Brooklyn,Williamsburg,40.71462,-73.96263,TRUE,moderate,Private room,2009,"$1,195 ",$239 ,1,3,0.13,4,1,0
7180,2 BEDROOM IN MIDTOWN EAST,unconfirmed,Olga,Manhattan,Midtown,40.75239,-73.9707,FALSE,flexible,Entire home/apt,2020,"$1,195 ",$239 ,10,169,3.23,5,1,309
95054,WYNDHAM MIDTOWN 45 NEAR THE UNITED NATIONS,unconfirmed,James,Manhattan,Midtown,40.75184,-73.97302,TRUE,strict,Private room,2010,"$1,195 ",$239 ,2,3,0.31,5,2,0
32121,WYNDHAM MIDTOWN 45 NEAR THE UNITED NATIONS,unconfirmed,James,Manhattan,Midtown,40.75184,-73.97302,TRUE,flexible,Private room,2010,"$1,195 ",$239 ,2,3,0.31,5,2,0
73296,Gorgeous Brooklyn Brownstone,unconfirmed,Lucie,Brooklyn,Bedford-Stuyvesant,40.68464,-73.92268,FALSE,strict,Entire home/apt,2006,"$1,195 ",$239 ,2,89,5.59,3,1,35
34425,Super nice space,unconfirmed,Robert,Brooklyn,Sunset Park,40.64431,-74.01261,TRUE,moderate,Private room,2009,"$1,195 ",$239 ,1,7,0.75,2,4,32
58491,Spacious Private Studio in Victorian Brooklyn Home,unconfirmed,Daniel,Brooklyn,Flatbush,40.63452,-73.96537,FALSE,flexible,Entire home/apt,2011,"$1,195 ",$239 ,5,22,0.75,2,1,36
63636,"Private entrance, sanctuary historic fort greene",verified,Ofer,Brooklyn,Fort Greene,40.69348,-73.97038,FALSE,moderate,Entire home/apt,2008,"$1,195 ",$239 ,60,8,0.25,2,2,59
15617,Sunny Duplex in Brooklyn's Best Area,verified,Viviana,Brooklyn,South Slope,40.66872,-73.98906,TRUE,moderate,Entire home/apt,2005,"$1,194 ",$239 ,3,30,0.79,1,3,181
50053,"1 Bedroom Apt in desirable Park Slope, Brooklyn",verified,Kathy,Brooklyn,South Slope,40.66211,-73.98332,FALSE,strict,Entire home/apt,2019,"$1,194 ",$239 ,3,43,3.62,2,1,82
77049,"Private room to rent - Hip Williamsburg, Brooklyn",unconfirmed,Kerry,Brooklyn,Williamsburg,40.70884,-73.94354,TRUE,strict,Private room,2008,"$1,194 ",$239 ,2,77,2.44,2,1,107
52645,Lovely  Getaway 420 friendly,unconfirmed,Ray,Brooklyn,Bedford-Stuyvesant,40.69368,-73.9322,TRUE,moderate,Entire home/apt,2014,"$1,194 ",$239 ,1,12,6.92,2,1,318
16063,Artsy Home in the Heart of Bushwick,unconfirmed,Mariella,Brooklyn,Bushwick,40.68622,-73.91026,TRUE,moderate,Private room,2011,"$1,194 ",$239 ,1,20,0.53,2,1,303
78579,Coney Island Pvt 1 Br Apt. * Wi-Fi,verified,Ed,Brooklyn,Coney Island,40.57575,-73.98465,TRUE,strict,Entire home/apt,2004,"$1,194 ",$239 ,2,63,2.23,4,6,140
83230,Nice Room in the upper west Manhathan,unconfirmed,Cesar,Manhattan,Harlem,40.81968,-73.95831,TRUE,moderate,Private room,2007,"$1,194 ",$239 ,1,36,1.65,2,2,169
91237,Coney Island Pvt 1 Br Apt. * Wi-Fi,verified,Ed,Brooklyn,Coney Island,40.57575,-73.98465,FALSE,strict,Entire home/apt,2004,"$1,194 ",$239 ,2,63,2.23,4,6,140
54760,ECO CLASSIC ROOM AT UES,verified,Maria,Manhattan,Upper East Side,40.78278,-73.95371,FALSE,flexible,Private room,2012,"$1,193 ",$239 ,3,18,2.65,5,2,243
67182,MedRoom 315-3C,verified,Orfelina,Bronx,Claremont Village,40.84353,-73.90542,FALSE,flexible,Private room,2012,"$1,193 ",$239 ,5,5,0.19,3,25,247
37607,"**Harlem, Chic Getaway! 5m to Dining/Trains***",verified,Stephanie,Manhattan,Harlem,40.82431,-73.94291,TRUE,strict,Entire home/apt,2008,"$1,193 ",$239 ,3,8,1.1,2,1,88
33122,Beautiful 1 Bdrm w/ Large Private Patio,verified,Emily,Brooklyn,Williamsburg,40.70901,-73.95471,FALSE,flexible,Entire home/apt,2012,"$1,193 ",$239 ,2,5,0.39,4,1,0
22559,Sunny East Village Apartment,unconfirmed,Bobby,Manhattan,East Village,40.72412,-73.97911,FALSE,strict,Entire home/apt,2021,"$1,193 ",$239 ,5,1,0.04,5,1,0
60012,Peaches Home away from home,unconfirmed,Peaches,Queens,Woodhaven,40.68843,-73.86437,TRUE,moderate,Entire home/apt,2004,"$1,192 ",$238 ,3,25,1.11,2,1,153
37477,"Room near JFK, good for Cancellations and Delays!",unconfirmed,Portia,Queens,Jamaica,40.67233,-73.77751,TRUE,moderate,Private room,2003,"$1,192 ",$238 ,1,2,0.32,4,4,253
9451,Amazing LES Manhattan Apt in LES,verified,Marianna,Manhattan,Lower East Side,40.7201,-73.9841,FALSE,moderate,Entire home/apt,2011,"$1,192 ",$238 ,3,44,0.92,2,1,283
64201,Fully Furnished  2 Bedroom Bronx Apartment,verified,C,Bronx,Morrisania,40.83383,-73.89947,FALSE,moderate,Entire home/apt,2018,"$1,192 ",$238 ,30,2,0.24,5,1,308
51674,(NO BOOKING FEE) X-LARGE PVT Room w/ GYM & ROOFTOP,unconfirmed,Lynn,Manhattan,Financial District,40.70771,-74.00794,FALSE,strict,Private room,2012,"$1,192 ",$238 ,3,39,0.53,4,2,120
76102,"Huge, Sunny Apartment on Bushwick/Bed Stuy Border!",unconfirmed,Ryan,Brooklyn,Bedford-Stuyvesant,40.69377,-73.9307,FALSE,moderate,Entire home/apt,2020,"$1,192 ",$238 ,2,8,0.24,5,1,10
74079,Sonder | Stock Exchange | Dashing 1BR + Kitchen,verified,Sonder (NYC),Manhattan,Financial District,40.70584,-74.01039,TRUE,flexible,Entire home/apt,2008,"$1,192 ",$238 ,2,3,0.77,4,327,317
39356,"Room in Charming, Plant-filled Brooklyn Apartment",verified,Kayla,Brooklyn,Gowanus,40.66902,-73.99188,FALSE,strict,Private room,2020,"$1,192 ",$238 ,1,20,3.13,2,1,146
35540,法拉盛步行地铁10分钟单房(共用卫生间)Queen size 床,unconfirmed,Cen,Queens,Flushing,40.75522,-73.83451,FALSE,moderate,Private room,2008,"$1,191 ",$238 ,1,19,1.84,3,3,0
41403,Sonder | Stock Exchange | Expansive 3BR + Lounge,unconfirmed,Sonder (NYC),Manhattan,Financial District,40.70775,-74.01047,FALSE,strict,Entire home/apt,2014,"$1,191 ",$238 ,2,11,3.33,3,327,297
95051,New unit Amazing apartment on 5th  ave 3 bdr #4,unconfirmed,Steven,Manhattan,East Harlem,40.80068,-73.94598,TRUE,strict,Entire home/apt,2007,"$1,191 ",$238 ,3,36,3.17,5,2,28
75697,Luxury 1 Bedroom Loft,unconfirmed,Dakota,Brooklyn,Bedford-Stuyvesant,40.69911,-73.94162,FALSE,strict,Private room,2011,"$1,191 ",$238 ,10,1,0.29,2,1,59
31132,Bright Bohemian Treasure in Prospect Heights,verified,Patti,Brooklyn,Prospect Heights,40.67942,-73.96469,TRUE,flexible,Private room,2021,"$1,191 ",$238 ,2,8,0.53,5,2,0
34935,Cozy Spacious Loft Convenient to City,unconfirmed,Sami,Queens,Jackson Heights,40.74997,-73.87851,TRUE,moderate,Entire home/apt,2014,"$1,191 ",$238 ,3,25,3.21,5,1,55
98473,法拉盛步行地铁10分钟单房(共用卫生间)Queen size 床,unconfirmed,Cen,Queens,Flushing,40.75522,-73.83451,FALSE,flexible,Private room,2008,"$1,191 ",$238 ,1,19,1.84,3,3,0
26153,Perfect one bedroom in midtown Manhattan,verified,Stanley,Manhattan,Murray Hill,40.74814,-73.97554,TRUE,flexible,Entire home/apt,2011,"$1,191 ",$238 ,30,1,0.09,3,50,365
12432,Angelina,verified,Vitaliy,Manhattan,Harlem,40.80948,-73.94739,FALSE,moderate,Entire home/apt,2017,"$1,191 ",$238 ,3,69,1.61,3,1,259
52641,"2-bedroom apartment near JFK LGA, eat, shop play.",verified,Mineva,Queens,South Ozone Park,40.67792,-73.82191,TRUE,strict,Entire home/apt,2016,"$1,191 ",$238 ,1,10,3.85,3,4,356
44169,Huge Townhouse in New York City,verified,David,Manhattan,Kips Bay,40.74142,-73.98219,FALSE,moderate,Entire home/apt,2019,"$1,191 ",$238 ,1,2,1.87,2,9,287
66887,Confortable,unconfirmed,Jackeline,Queens,Elmhurst,40.74377,-73.86779,TRUE,strict,Private room,2021,"$1,190 ",$238 ,30,1,0.05,3,2,0
50071,NYC Style Superior Family Studio,verified,Henry,Manhattan,Chelsea,40.7483,-73.98891,TRUE,strict,Entire home/apt,2014,"$1,190 ",$238 ,1,240,25.62,2,11,279
35902,Cozy 3 Bedroom in the heart of NYC,verified,Leah,Manhattan,Hell's Kitchen,40.76088,-73.98971,TRUE,flexible,Entire home/apt,2010,"$1,190 ",$238 ,30,1,0.26,4,1,331
40386,small room in Manhattan. Close to major nyc sites,verified,Mary,Manhattan,Morningside Heights,40.81053,-73.96123,TRUE,flexible,Private room,2022,"$1,190 ",$238 ,1,1,0.17,2,2,0
10771,Large and Charming East Village Apt,unconfirmed,Matin,Manhattan,East Village,40.72824,-73.97543,FALSE,flexible,Entire home/apt,2015,"$1,190 ",$238 ,3,11,0.24,5,1,278
64245,"Smart Studio in Trendy Tribeca, Indoor pool + Gym by Blueground",verified,Blueground,Manhattan,Tribeca,40.715794,-74.005875,TRUE,moderate,Entire home/apt,2006,"$1,190 ",$238 ,30,2,0.05,4,332,350
31829,Queens C Place,unconfirmed,Christine,Queens,South Ozone Park,40.66872,-73.79417,TRUE,strict,Private room,2017,"$1,190 ",$238 ,3,15,1.18,3,2,365
12743,Big Studio W/ Prive Patio +Amenity,verified,Will,Brooklyn,Greenpoint,40.72107,-73.95376,FALSE,moderate,Entire home/apt,2014,"$1,190 ",$238 ,1,3,0.1,4,1,54
72604,Large and Charming East Village Apt,verified,Matin,Manhattan,East Village,40.72824,-73.97543,TRUE,flexible,Entire home/apt,2015,"$1,190 ",$238 ,3,11,0.24,5,1,0
30104,Big beautiful bedroom in huge Bushwick apartment,verified,Megan,Brooklyn,Bushwick,40.69839,-73.92044,FALSE,flexible,Private room,2011,"$1,190 ",$238 ,2,8,0.52,5,2,8
14559,Fantastic 1 Bdrm | Entire Apartment,verified,James,Manhattan,Harlem,40.81086,-73.94037,FALSE,moderate,Entire home/apt,2014,"$1,190 ",$238 ,14,2,0.05,1,1,321
79868,Little Haven in Brooklyn Redeux,unconfirmed,Allison,Brooklyn,Bedford-Stuyvesant,40.68017,-73.95182,TRUE,flexible,Entire home/apt,2019,"$1,190 ",$238 ,1,131,4.96,1,1,185
22704,Little Haven in Brooklyn Redeux,unconfirmed,Allison,Brooklyn,Bedford-Stuyvesant,40.68017,-73.95182,TRUE,flexible,Entire home/apt,2019,"$1,190 ",$238 ,1,131,4.96,1,1,185
94820,Musician's Apartment Near the Park,unconfirmed,Emma,Brooklyn,Prospect-Lefferts Gardens,40.66364,-73.94978,TRUE,strict,Entire home/apt,2016,"$1,190 ",$238 ,60,15,1.21,3,1,2
59698,"A Safe & Pleasant Time in NYC, 3",unconfirmed,Geoff & Aurelia,Manhattan,East Harlem,40.79465,-73.935,TRUE,strict,Entire home/apt,2016,"$1,190 ",$238 ,3,26,0.3,4,3,270
56135,Bed-Stuy 2 Bed/2 Bath - Renovated,verified,Barry,Brooklyn,Bedford-Stuyvesant,40.68456,-73.93987,FALSE,moderate,Entire home/apt,2014,"$1,190 ",$238 ,30,23,0.66,2,1,105
22700,"Comfy, Awesome, Large Apt. in Brownstone",verified,Nicky,Brooklyn,Clinton Hill,40.68805,-73.96114,TRUE,flexible,Private room,2016,"$1,190 ",$238 ,2,45,2.11,5,1,43
6496,Ideal One Bedroom on UWS,unconfirmed,Adam,Manhattan,Upper West Side,40.79973,-73.9711,TRUE,moderate,Entire home/apt,2019,"$1,190 ",$238 ,2,6,0.11,1,1,162
45028,Enjoy Yourself in Classic East Village 1BR,unconfirmed,Corey,Manhattan,East Village,40.72709,-73.98582,TRUE,strict,Entire home/apt,2017,"$1,190 ",$238 ,1,8,4.9,3,1,15
72595,LOVELY Clean&Safe 2 BR NYC Suburban,unconfirmed,Martha,Staten Island,Great Kills,40.5455,-74.14829,FALSE,moderate,Private room,2015,"$1,189 ",$238 ,1,82,1.78,3,1,325
55625,JFK Suite 1 - No Pet & No Smoking INSIDE,verified,Fritzner,Queens,Springfield Gardens,40.66025,-73.75909,TRUE,flexible,Entire home/apt,2009,"$1,189 ",$238 ,2,20,1.41,3,1,176
11488,Big manhattan room w gorgeous views.,unconfirmed,D,Manhattan,East Harlem,40.79207,-73.94196,TRUE,flexible,Private room,2022,"$1,189 ",$238 ,1,16,1.15,1,2,231
76356,NEW & PRIVATE 2 bedroom apt in stately townhouse,verified,Ken,Brooklyn,Gowanus,40.68255,-73.9899,FALSE,flexible,Entire home/apt,2022,"$1,189 ",$238 ,30,118,3.53,4,1,265
79282,Cute bedroom available near subway in Astoria!,verified,Kerstin,Queens,Astoria,40.76529,-73.92304,TRUE,moderate,Private room,2005,"$1,189 ",$238 ,2,14,0.55,5,1,0
73614,Gorgeous Room in Downtown Designer Apartment,unconfirmed,Tess,Manhattan,Two Bridges,40.71262,-73.99592,FALSE,flexible,Private room,2020,"$1,189 ",$238 ,3,17,1.31,5,2,86
52122,Lovely Brownstone Apartment with Backyard (2-bed),unconfirmed,Sarah & Burak,Brooklyn,Bedford-Stuyvesant,40.68598,-73.95527,TRUE,strict,Entire home/apt,2012,"$1,189 ",$238 ,2,4,1.97,5,1,92
39896,Riverdale private room,verified,Viktoria,Bronx,Fieldston,40.88796,-73.90473,FALSE,flexible,Private room,2004,"$1,189 ",$238 ,1,3,0.45,3,1,0
37540,Modern Apartment in Brooklyn with deck and yard,verified,Maruf,Brooklyn,Kensington,40.64261,-73.9835,TRUE,moderate,Entire home/apt,2013,"$1,189 ",$238 ,1,24,3.27,3,1,290
34675,"Room in Bedstuy! Exposed brick, subways are close",verified,Eitan,Brooklyn,Bedford-Stuyvesant,40.68299,-73.92713,FALSE,flexible,Private room,2004,"$1,188 ",$238 ,1,4,0.36,3,1,0
13125,Private room in Park Slope,verified,Lilly,Brooklyn,South Slope,40.66249,-73.97921,FALSE,flexible,Private room,2020,"$1,188 ",$238 ,1,1,0.02,1,1,219
58778,Affordable Private Room in Manhattan!,verified,Alex,Manhattan,Washington Heights,40.8427,-73.93478,FALSE,moderate,Private room,2005,"$1,188 ",$238 ,30,42,0.69,5,1,0
61971,Liberty Apt,verified,Ozigbe,Brooklyn,East New York,40.67191,-73.89151,FALSE,moderate,Entire home/apt,2015,"$1,188 ",$238 ,30,3,0.13,3,2,0
16081,"6BR, 4 Full Bath Duplex with Washer & Dryer",verified,Lucy,Brooklyn,Crown Heights,40.66629,-73.93073,FALSE,moderate,Entire home/apt,2004,"$1,188 ",$238 ,3,33,1.12,1,4,259
63022,"Hip, lofty garden oasis apt with sundeck",unconfirmed,Andrew,Brooklyn,Crown Heights,40.67823,-73.96332,TRUE,strict,Entire home/apt,2003,"$1,188 ",$238 ,3,9,0.27,4,3,328
33728,Cozy Studio Apartment in Great Location!!!,unconfirmed,Diana,Manhattan,Gramercy,40.73714,-73.97962,FALSE,moderate,Entire home/apt,2017,"$1,188 ",$238 ,1,11,1.51,2,5,312
101685,MODERN ROOM IN CHARMING CLINTON HILL+ SWEET VIEW 3,unconfirmed,Graham And Ben,Brooklyn,Clinton Hill,40.69616,-73.96198,FALSE,strict,Private room,2014,"$1,188 ",$238 ,30,4,0.14,1,11,311
25824,"Experiencing tranquility in Private Home, Room #4",unconfirmed,Bruce & Cyrina,Brooklyn,Flatbush,40.64923,-73.95273,FALSE,strict,Private room,2022,"$1,187 ",$237 ,2,26,1.16,4,4,0
15801,Sunny Spacious Apt in Astoria w/ back yard access,verified,Kasey,Queens,Astoria,40.75735,-73.92134,TRUE,flexible,Entire home/apt,2018,"$1,187 ",$237 ,3,21,0.58,1,1,0
42764,Manhatan Stylish Bedroom,unconfirmed,Jay,Manhattan,Harlem,40.81072,-73.94235,TRUE,flexible,Private room,2015,"$1,187 ",$237 ,NA,8,2.61,5,9,150
97049,UWS Luxury 2 bdrm 2 bath Penthouse,verified,Mat,Manhattan,Upper West Side,40.79473,-73.96744,FALSE,flexible,Entire home/apt,2009,"$1,187 ",$237 ,30,2,0.19,2,10,365
64319,Beautiful cozy room jfk/ lga  Airport,unconfirmed,Balwinder,Queens,Richmond Hill,40.69501,-73.82562,FALSE,moderate,Private room,2011,"$1,187 ",$237 ,1,3,0.32,3,2,338
35722,Cozy accommodation in Queens for MAX 2 people,unconfirmed,Haruhisa,Queens,Elmhurst,40.74316,-73.87285,TRUE,strict,Private room,2008,"$1,187 ",$237 ,29,2,0.29,4,5,1
79878,"A Special Place for You! Bed-Stuy, Brooklyn",unconfirmed,Jaran,Brooklyn,Bedford-Stuyvesant,40.68435,-73.94135,FALSE,flexible,Entire home/apt,2016,"$1,187 ",$237 ,3,40,1.6,1,3,170
11506,Bright Artistic Downtown Studio,verified,Graham,Manhattan,Chinatown,40.71719,-73.99109,TRUE,flexible,Entire home/apt,2004,"$1,187 ",$237 ,30,60,1.38,5,1,152
57776,“Most Comfortable Bed”  1 Block From TSquare Train,unconfirmed,Leroy,Manhattan,Harlem,40.82075,-73.95658,TRUE,moderate,Private room,2004,"$1,187 ",$237 ,1,13,2.42,5,1,167
92692,Cozy bedroom in Brooklyn Brownstone,verified,Tia,Brooklyn,Crown Heights,40.66989,-73.9436,FALSE,strict,Private room,2019,"$1,187 ",$237 ,3,1,0.07,2,1,18
40645,Private apartment (1st floor) with all amenities,unconfirmed,Yogi,Queens,Ozone Park,40.67883,-73.85627,TRUE,moderate,Entire home/apt,2006,"$1,187 ",$237 ,2,7,1.2,2,3,52
97821,"Cozy, artistic studio in the heart of Bushwick",verified,Alicia,Brooklyn,Bushwick,40.7044,-73.92111,FALSE,moderate,Entire home/apt,2016,"$1,187 ",$237 ,3,6,0.55,5,1,0
39735,Large and cozy room in the heart of Manhattan,unconfirmed,Tanya,Manhattan,Midtown,40.74981,-73.98585,FALSE,moderate,Private room,2008,"$1,186 ",$237 ,1,7,1.07,2,2,0
19878,Cozy private room in a new building in Bushwick,verified,Kevin,Brooklyn,Bushwick,40.69283,-73.92702,FALSE,flexible,Private room,2020,"$1,186 ",$237 ,15,3,0.09,4,1,83
31130,Brooklyn Penthouse With Manhattan Views,unconfirmed,Steve,Brooklyn,Williamsburg,40.71189,-73.95355,TRUE,flexible,Entire home/apt,2016,"$1,186 ",$237 ,2,43,2.8,5,1,102
28636,Newly renovated 3 BEDROOM in Astoria woodside NY,verified,Niki,Queens,Astoria,40.76403,-73.90612,FALSE,flexible,Entire home/apt,2014,"$1,186 ",$237 ,2,69,3.68,5,1,307
52260,Newly renovated cozy studio w/parking /nearJFK,unconfirmed,David,Queens,Arverne,40.59435,-73.79401,TRUE,strict,Entire home/apt,2017,"$1,186 ",$237 ,2,10,1.65,5,1,342
32369,Bedstuy Fly!  Two Bedroom Garden Apartment.,verified,Ingrid,Brooklyn,Bedford-Stuyvesant,40.68902,-73.92838,TRUE,moderate,Entire home/apt,2020,"$1,186 ",$237 ,3,52,3.9,5,1,37
88229,Spacious Room in the Heart of Williamsburg,unconfirmed,Chloe,Brooklyn,Williamsburg,40.71916,-73.95749,FALSE,moderate,Private room,2008,"$1,186 ",$237 ,5,4,0.14,5,2,0
40932,Downtown Modern 2 bedroom with Views!,verified,Hana,Manhattan,Gramercy,40.73782,-73.98547,TRUE,moderate,Entire home/apt,2018,"$1,186 ",$237 ,1,6,1.49,3,3,0
68177,Luxury Studio - 1 Stop from NYC/Amazing Views,verified,Ricardo,Queens,Long Island City,40.74785,-73.94651,FALSE,moderate,Entire home/apt,2021,"$1,186 ",$237 ,2,82,1.63,5,1,0
95915,Historic Building on a Tree-lined Street,verified,Tammen,Brooklyn,Boerum Hill,40.68696,-73.98174,TRUE,strict,Entire home/apt,2009,"$1,186 ",$237 ,2,5,0.4,5,1,0
7274,纽约之家(Sunnyhome7),unconfirmed,Amy,Queens,Flushing,40.74569,-73.83299,FALSE,flexible,Private room,2020,"$1,186 ",$237 ,1,214,4.08,3,8,107
33265,Bright room between SoHo/NoHo/LES,unconfirmed,Yosh,Manhattan,Little Italy,40.71778,-73.99801,FALSE,flexible,Private room,2007,"$1,186 ",$237 ,3,35,2.84,2,1,0
56163,A+ Location Comfort Stay Studio (3 Beds),verified,Nomad,Manhattan,Midtown,40.74766,-73.98702,FALSE,moderate,Entire home/apt,2009,"$1,185 ",$237 ,7,23,1.47,2,53,158
98091,Beautiful Historic Brooklyn!,unconfirmed,Kc,Brooklyn,Bedford-Stuyvesant,40.69652,-73.94821,FALSE,strict,Private room,2006,"$1,185 ",$237 ,2,46,4.68,4,4,36
72005,Private bedroom in Lower East Side,unconfirmed,Brian,Manhattan,Lower East Side,40.72235,-73.98769,TRUE,strict,Private room,2006,"$1,185 ",$237 ,1,1,0.02,3,1,0
85304,Victorian Flatbush Family Friendly,verified,Elizabeth,Brooklyn,Flatbush,40.64933,-73.96478,TRUE,flexible,Entire home/apt,2005,"$1,185 ",$237 ,5,4,0.11,5,1,202
67234,"High Ceilings, Period Details",unconfirmed,Benjamin,Brooklyn,Sunset Park,40.66485,-73.99304,FALSE,moderate,Entire home/apt,2017,"$1,185 ",$237 ,30,4,0.1,3,19,247
72217,Designer's Large 1BR in Chelsea,unconfirmed,Sam,Manhattan,Chelsea,40.74768,-73.99625,FALSE,flexible,Entire home/apt,2015,"$1,185 ",$237 ,4,3,0.06,4,1,0
21506,Perfect West Village Apartment,verified,Mike And Lori,Manhattan,West Village,40.73532,-74.0031,TRUE,moderate,Entire home/apt,2019,"$1,185 ",$237 ,3,1,0.03,3,1,0
59824,Airy private bedroom in Clinton Hill,verified,Marina,Brooklyn,Bedford-Stuyvesant,40.68321,-73.95691,TRUE,moderate,Private room,2009,"$1,185 ",$237 ,2,2,0.8,5,1,17
10384,Designer's Large 1BR in Chelsea,verified,Sam,Manhattan,Chelsea,40.74768,-73.99625,TRUE,moderate,Entire home/apt,2015,"$1,185 ",$237 ,4,3,0.06,4,1,252
79543,Inspiring & Motivational ⭐️,unconfirmed,Charles,Manhattan,Washington Heights,40.84497,-73.93934,TRUE,strict,Private room,2019,"$1,185 ",$237 ,1,129,4.7,2,3,365
84663,Gorgeous apartment in Brownstone,unconfirmed,Gary,Brooklyn,South Slope,40.66736,-73.98773,TRUE,strict,Private room,2009,"$1,185 ",$237 ,2,141,3.63,1,1,95
33568,Warm and Cozy Bedroom ~ 15 minutes to JFK,unconfirmed,Jeffrey & Casandra,Queens,Bayswater,40.61036,-73.7687,FALSE,strict,Private room,2020,"$1,184 ",$237 ,1,8,8,3,1,172
96501,Warm and Cozy Bedroom ~ 15 minutes to JFK,unconfirmed,Jeffrey & Casandra,Queens,Bayswater,40.61036,-73.7687,TRUE,flexible,Private room,2020,"$1,184 ",$237 ,1,8,8,3,1,172
8703,"Modern Williamsburg apt w/Gym, Roof",verified,Nicholas,Brooklyn,Williamsburg,40.70877,-73.94889,TRUE,flexible,Entire home/apt,2014,"$1,184 ",$237 ,3,20,0.4,3,1,262
73580,Fort Greene 3 bedroom duplex apartment,unconfirmed,Amir,Brooklyn,Fort Greene,40.69392,-73.97114,FALSE,strict,Entire home/apt,2013,"$1,184 ",$237 ,3,37,2.39,3,2,140
92637,room B private manhattan room,unconfirmed,Eliahu,Manhattan,Harlem,40.81337,-73.95206,FALSE,flexible,Private room,2005,"$1,184 ",$237 ,1,1,0.06,2,11,364
44459,I rent out brand new 2br/2bath apt in Chinatown,verified,Stanislav,Manhattan,Chinatown,40.71333,-73.99419,TRUE,moderate,Entire home/apt,2011,"$1,184 ",$237 ,2,5,2.42,2,1,231
52605,1 Bedroom Plus Apt | Front & Wall Street WhyHotel,verified,Front & Wall,Manhattan,Financial District,40.704903,-74.006416,TRUE,flexible,Entire home/apt,2013,"$1,184 ",$237 ,1,10,2.86,2,9,344
27589,"Sunny Slice of uptown NYC, Private Room, Comfy!",verified,Dawn,Manhattan,East Harlem,40.79503,-73.93953,FALSE,moderate,Private room,2004,"$1,184 ",$237 ,3,2,0.1,3,1,0
26269,Room in Chelsea,unconfirmed,Sorcha,Manhattan,Chelsea,40.74063,-73.99998,FALSE,flexible,Private room,2010,"$1,183 ",$237 ,2,4,0.19,5,1,0
102053,"☀️Private, cozy & quiet room in Inwood Manhattan☀️",unconfirmed,Zhoe,Manhattan,Inwood,40.86857,-73.91577,TRUE,flexible,Private room,NA,"$1,183 ",,4,95,3.65,2,1,323
743,Resort-like living in Williamsburg,unconfirmed,Higgins,Brooklyn,Williamsburg,40.71647,-73.93974,TRUE,flexible,Entire home/apt,2013,"$1,183 ",$237 ,30,1,0.01,2,1,253
70902,Luxury 1 Bedroom Upper West,verified,Olivier,Manhattan,Upper West Side,40.77864,-73.98437,FALSE,strict,Entire home/apt,2012,"$1,183 ",$237 ,30,18,0.29,3,2,135
88345,Master bedroom/private bathroom with Balcony,unconfirmed,Adam,Brooklyn,Bedford-Stuyvesant,40.68511,-73.95452,TRUE,flexible,Private room,2007,"$1,183 ",$237 ,3,5,0.15,2,1,83
60873,Cozy Sugar Hill 1 bedroom Apartment,verified,Tanika,Manhattan,Harlem,40.82838,-73.94435,TRUE,strict,Entire home/apt,2005,"$1,183 ",$237 ,3,8,0.94,4,1,236
16315,One bedroom in Beautiful Astoria with balcony!,verified,Stephanie,Queens,Ditmars Steinway,40.77265,-73.91401,FALSE,flexible,Private room,2003,"$1,183 ",$237 ,1,1,0.03,4,1,336
95986,"Luxury, large, private room on Upper West Side",verified,Lenny,Manhattan,Upper West Side,40.78052,-73.97567,FALSE,moderate,Private room,2004,"$1,183 ",$237 ,3,14,1.14,4,1,0
75431,"Big, Quiet Apartment with Two Cats, Central Park",verified,Rachel,Manhattan,Upper West Side,40.79702,-73.96256,TRUE,moderate,Entire home/apt,2017,"$1,183 ",$237 ,3,2,2,5,1,0
6532,Spanish Harlem Apt,verified,Olson,Manhattan,East Harlem,40.79264,-73.93898,FALSE,strict,Entire home/apt,2017,"$1,183 ",$237 ,5,1,0.02,2,1,287
41923,"Big room, sleeps 4 with private bathroom.",verified,Harmony,Brooklyn,Greenpoint,40.72312,-73.93608,TRUE,strict,Private room,2005,"$1,183 ",$237 ,1,3,2.43,4,5,349
73191,"Lovely West Harlem Duplex, Comfortably Sleeps 4",verified,Kinda,Manhattan,Harlem,40.80381,-73.95055,TRUE,strict,Entire home/apt,2007,"$1,183 ",$237 ,10,10,0.64,4,1,0
81460,法拉盛(Flushing)独立出入Basement套房出租｡2房1卫 2Rooms/1Bath,unconfirmed,Bing,Queens,Flushing,40.75388,-73.81561,FALSE,flexible,Private room,2016,"$1,183 ",$237 ,1,70,2.86,3,4,85
79130,"☀️Private, cozy & quiet room in Inwood Manhattan☀️",unconfirmed,Zhoe,Manhattan,Inwood,40.86857,-73.91577,FALSE,flexible,Private room,2011,"$1,183 ",$237 ,4,95,3.65,2,1,323
93166,"Lovely West Harlem Duplex, Comfortably Sleeps 4",unconfirmed,Kinda,Manhattan,Harlem,40.80381,-73.95055,FALSE,flexible,Entire home/apt,2007,"$1,183 ",$237 ,10,10,0.64,4,1,0
82738,Bright & Comfy 2-BR in heart of Greenwich Village,verified,Gavin,Manhattan,Greenwich Village,40.73325,-73.99971,FALSE,flexible,Entire home/apt,2003,"$1,183 ",$237 ,2,34,1.52,2,1,10
67357,Nuestro hogar será tu hogar.,verified,Leonor,Bronx,Tremont,40.84477,-73.89273,TRUE,strict,Private room,2021,"$1,183 ",$237 ,30,14,0.47,3,2,0
19606,Space & Comfort in Victorian Brooklyn home,verified,Dave + Suzanne,Brooklyn,Flatbush,40.64008,-73.96579,FALSE,flexible,Entire home/apt,2004,"$1,183 ",$237 ,3,5,0.15,5,2,0
94926,bushwick’s cozy nook,unconfirmed,Jose,Brooklyn,Bushwick,40.68973,-73.91172,FALSE,flexible,Private room,2014,"$1,182 ",$236 ,3,36,3.4,2,2,292
61298,Single Day Bed with Washer/Dryer,verified,Tj And Thais,Brooklyn,Midwood,40.61315,-73.95502,FALSE,strict,Private room,2011,"$1,182 ",$236 ,3,1,0.36,2,3,64
51367,Cozy and comfortable room in Manhattan,verified,Kateryna,Manhattan,East Harlem,40.7898018,-73.94005884,TRUE,flexible,Private room,2021,"$1,182 ",$236 ,1,5,4.41,4,1,25
53181,A private access room available in Brooklyn.,unconfirmed,Justin,Brooklyn,Bedford-Stuyvesant,40.68081,-73.92313,FALSE,moderate,Private room,2015,"$1,182 ",$236 ,1,10,3.06,2,1,308
32735,Common Single Room # 1,unconfirmed,Martita,Brooklyn,Bedford-Stuyvesant,40.6861,-73.92859,FALSE,strict,Private room,2019,"$1,182 ",$236 ,1,125,9.47,3,6,325
28601,Heart of Williamsburg - HUGE 1BR Apartment modern,verified,Shawn,Brooklyn,Williamsburg,40.71644,-73.94807,TRUE,flexible,Entire home/apt,2014,"$1,182 ",$236 ,2,1,0.05,2,1,0
33681,Sunny Private Bedroom Near Manhattan,unconfirmed,Carolina,Queens,Sunnyside,40.74122,-73.92223,FALSE,flexible,Private room,2008,"$1,182 ",$236 ,1,11,0.93,2,1,346
66717,Entire Apt Near Train Magical Midwood Retreat,unconfirmed,Angie,Brooklyn,Midwood,40.61698,-73.95633,FALSE,flexible,Entire home/apt,2010,"$1,182 ",$236 ,30,3,0.12,4,2,63
53406,"Comfortable, clean & quiet in EV",unconfirmed,Casper,Manhattan,East Village,40.73153,-73.98398,FALSE,moderate,Private room,2010,"$1,182 ",$236 ,1,392,3.4,4,1,297
70140,PRIVATE LARGE-MODERN-CLEAN master bedroom,unconfirmed,Sergio,Manhattan,East Harlem,40.80215,-73.93889,TRUE,moderate,Private room,2003,"$1,181 ",$236 ,1,4,0.1,2,5,0
57985,"Prívate room in Queens, NY",unconfirmed,Lady,Queens,Corona,40.73957,-73.85553,FALSE,moderate,Private room,2010,"$1,181 ",$236 ,1,95,1.26,5,1,203
1964,PRIVATE LARGE-MODERN-CLEAN master bedroom,unconfirmed,Sergio,Manhattan,East Harlem,40.80215,-73.93889,FALSE,strict,Private room,2003,"$1,181 ",$236 ,1,4,0.1,2,5,256
87251,Beautiful place,verified,Anmarie,Brooklyn,Canarsie,40.63723,-73.90854,FALSE,moderate,Entire home/apt,2014,"$1,181 ",$236 ,1,104,2.86,2,1,97
98180,Best Brooklyn location - stylish and comfortable,unconfirmed,Lindsay,Brooklyn,Cobble Hill,40.68643,-73.9976,TRUE,moderate,Entire home/apt,2015,"$1,181 ",$236 ,4,38,3.75,4,2,33
20468,Large 1BR Apt In Upper Manhattan w/AC in Bedroom,verified,Daniel,Manhattan,Washington Heights,40.84517,-73.93748,TRUE,moderate,Entire home/apt,2009,"$1,181 ",$236 ,4,2,0.08,2,1,0
52948,Brooklyn’s Finest “Welcome Home”,unconfirmed,Xie,Brooklyn,Canarsie,40.63471,-73.89161,FALSE,moderate,Private room,2003,"$1,181 ",$236 ,3,5,1.19,2,5,361
92750,Park Slope 1BR 1st Floor Apt - Perfect for 1 - 2,verified,Mo,Brooklyn,Park Slope,40.67418,-73.97918,TRUE,strict,Entire home/apt,2021,"$1,180 ",$236 ,2,27,1.56,2,1,0
94256,Cozy & warm private studio apartment in Astoria,unconfirmed,Amy,Queens,Ditmars Steinway,40.77467,-73.9094,TRUE,moderate,Entire home/apt,2022,"$1,180 ",$236 ,2,6,0.42,3,1,0
45621,New Hotel-Like Private Room KING Bed 25 min NYC,unconfirmed,David,Queens,Maspeth,40.73829,-73.89586,TRUE,strict,Private room,2010,"$1,180 ",$236 ,1,12,9.47,3,4,233
68076,"Private Room in Manhattan,Times SQ",unconfirmed,Suphitcha,Manhattan,Hell's Kitchen,40.76196,-73.98885,FALSE,moderate,Private room,2006,"$1,180 ",$236 ,30,4,0.15,4,2,0
61136,Sumptuous Brownstone Apt in the Heart Fort Greene,unconfirmed,Rr,Brooklyn,Fort Greene,40.68916,-73.97762,FALSE,moderate,Entire home/apt,2020,"$1,180 ",$236 ,30,73,2,2,2,256
35499,Casas familiar,unconfirmed,Camilo,Bronx,Concourse,40.83659,-73.91777,FALSE,strict,Private room,2014,"$1,180 ",$236 ,1,1,0.11,2,2,8
51429,Executive Studio Best Location,verified,Stay With Vibe,Manhattan,Kips Bay,40.73994,-73.97945,FALSE,moderate,Entire home/apt,2010,"$1,180 ",$236 ,30,22,0.35,3,108,297
62698,COZY ROOM IN TIMES SQUARE,verified,Piero,Manhattan,Hell's Kitchen,40.75577,-73.99478,FALSE,moderate,Private room,2011,"$1,179 ",$236 ,1,8,1.15,5,6,349
86373,"Tree lined, light-filled in Chelsea",unconfirmed,Karin,Manhattan,Chelsea,40.74858,-73.99887,FALSE,strict,Entire home/apt,2015,"$1,179 ",$236 ,1,1,0.03,5,1,82
97991,Home Away from Home: Crystalline dreams,unconfirmed,J-,Brooklyn,Bushwick,40.70397,-73.91801,FALSE,moderate,Private room,2006,"$1,179 ",$236 ,3,8,0.76,4,4,104
44980,Midtown Manhattan Stunner - Private room,unconfirmed,Royalton,Manhattan,Theater District,40.75491,-73.98507,TRUE,strict,Private room,2004,"$1,179 ",$236 ,1,3,3,2,9,318
70786,Perfect in Park Slope: EZ 2 NYC,verified,Daniel,Brooklyn,Park Slope,40.67274,-73.97339,TRUE,moderate,Entire home/apt,2021,"$1,179 ",$236 ,30,58,0.81,4,1,220
33309,Amazing & Quite shared room near L train,verified,Sergii,Brooklyn,Greenpoint,40.72177,-73.94166,TRUE,flexible,Shared room,2003,"$1,179 ",$236 ,30,3,0.26,3,10,312
2610,Perfect in Park Slope: EZ 2 NYC,unconfirmed,Daniel,Brooklyn,Park Slope,40.67274,-73.97339,TRUE,moderate,Entire home/apt,2021,"$1,179 ",$236 ,30,58,0.81,4,1,86
23575,Clean Midtown Rooms in heart of NYC,verified,Charles,Manhattan,Murray Hill,40.74763,-73.97602,TRUE,strict,Private room,2008,"$1,179 ",$236 ,3,4,0.16,1,2,0
51870,Beautiful Sunlit Retreat in Manhattan,verified,BeautifulHarlem,Manhattan,Harlem,40.82014,-73.94536,FALSE,moderate,Entire home/apt,2012,"$1,179 ",$236 ,1,292,4.76,4,3,69
55741,Grace,verified,Rachel,Queens,South Ozone Park,40.66705,-73.81233,FALSE,flexible,Private room,2019,"$1,179 ",$236 ,28,12,0.21,2,2,361
8736,Your NYC spot,unconfirmed,Anthony And Laura,Queens,Rego Park,40.7262,-73.8672,FALSE,moderate,Entire home/apt,2011,"$1,179 ",$236 ,3,3,0.09,3,1,13
101019,Cozy room in MASSIVE bushwick house,unconfirmed,Jared,Brooklyn,Bushwick,40.68863,-73.90874,TRUE,flexible,Private room,2020,"$1,178 ",$236 ,1,1,0.03,5,1,66
63528,All-inclusive Apt | Private Room in Coliving,verified,Sharedeasy,Manhattan,Upper West Side,40.80028,-73.95967,TRUE,strict,Private room,2013,"$1,178 ",$236 ,30,4,0.17,4,2,355
81096,Cute Room in Renovated Spacious LES/Chinatown Apt,verified,Andrew,Manhattan,Lower East Side,40.71453,-73.98679,TRUE,strict,Private room,2009,"$1,178 ",$236 ,5,72,2.93,5,2,316
73882,Sunny Harlem room: Ideal sublet for summer intern,verified,Lucy,Manhattan,Harlem,40.80731,-73.95155,FALSE,flexible,Private room,2006,"$1,178 ",$236 ,2,2,0.15,2,1,1
42004,1.5 Bdrm In Hip Bed-Stuy Brownstone,verified,Nikki,Brooklyn,Bedford-Stuyvesant,40.69127,-73.93856,FALSE,flexible,Entire home/apt,2020,"$1,178 ",$236 ,1,13,3.86,4,1,13
42235,"Cozy, BRIGHT & AFFORDABLE STUDIO, heart of UES",verified,Elena,Manhattan,Upper East Side,40.77032,-73.95498,TRUE,moderate,Entire home/apt,2017,"$1,178 ",$236 ,7,13,3.17,5,1,34
34924,charming and unique studio at toplocation,verified,Julie,Manhattan,Upper East Side,40.76066,-73.96397,TRUE,moderate,Entire home/apt,2012,"$1,178 ",$236 ,1,2,2,5,1,0
3220,Adorable 1BD Home with view of NYC,unconfirmed,Lauren,Queens,Astoria,40.77453,-73.92833,TRUE,moderate,Entire home/apt,2006,"$1,178 ",$236 ,4,17,0.25,4,1,223
44932,Penn room 14,verified,Aminul,Brooklyn,East New York,40.66814,-73.8953,TRUE,moderate,Private room,2006,"$1,178 ",$236 ,7,2,1.2,5,13,258
68237,Cozy bedroom apt near to LGA airport. Free Parking,verified,Tashi,Queens,Jackson Heights,40.75106,-73.89411,FALSE,strict,Entire home/apt,2006,"$1,178 ",$236 ,30,204,3.16,4,1,245
95604,Spacious & minimal pre-war apartment,verified,Emelie,Manhattan,Chelsea,40.7406,-74.00433,TRUE,strict,Entire home/apt,2014,"$1,178 ",$236 ,3,3,0.24,4,1,0
14405,Private Room in Uptown Manhattan,unconfirmed,Hannah,Manhattan,Washington Heights,40.83336,-73.94333,FALSE,strict,Private room,2020,"$1,178 ",$236 ,2,118,2.93,1,1,359
15964,"Luxury Studio + Gym, Rooftop, Elevator!",unconfirmed,Andrew,Manhattan,Upper West Side,40.79167,-73.97273,TRUE,moderate,Entire home/apt,2004,"$1,178 ",$236 ,2,6,0.16,2,1,175
78700,Cozy Brooklyn Apartment,unconfirmed,Daniella,Brooklyn,Gowanus,40.6707,-73.99118,TRUE,flexible,Shared room,2014,"$1,177 ",$235 ,1,9,0.31,2,1,0
21542,"Cozy bdrm. Astoria, Queens. 10 min to Manhattan.",unconfirmed,Tyler,Queens,Astoria,40.7578,-73.92368,TRUE,flexible,Private room,2013,"$1,177 ",$235 ,2,1,0.03,3,1,0
91364,"Cozy bdrm. Astoria, Queens. 10 min to Manhattan.",unconfirmed,Tyler,Queens,Astoria,40.7578,-73.92368,TRUE,strict,Private room,2013,"$1,177 ",$235 ,2,1,0.03,3,1,0
67671,Private Room close to subway (3/3),verified,Esteban,Queens,Jackson Heights,40.75413,-73.86576,TRUE,flexible,Private room,2021,"$1,177 ",$235 ,30,127,1.61,3,3,362
102444,Art Gallery apartment in a Queens’ Victorian house,verified,Andrzej,Queens,Woodhaven,40.69508,-73.86032,FALSE,strict,Entire home/apt,2019,"$1,177 ",$235 ,3,24,2.55,3,1,308
98047,Art Gallery apartment in a Queens’ Victorian house,verified,Andrzej,Queens,Woodhaven,40.69508,-73.86032,FALSE,strict,Entire home/apt,2019,"$1,177 ",$235 ,3,24,2.55,3,1,308
85808,Cozy Room in West Harlem NYC,verified,Oge,Manhattan,Harlem,40.82143,-73.95651,TRUE,moderate,Private room,2007,"$1,177 ",$235 ,7,1,0.03,3,1,283
17814,Cozy Bedroom,unconfirmed,Tory,Manhattan,Harlem,40.82323,-73.9467,TRUE,moderate,Private room,2011,"$1,177 ",$235 ,2,9,0.25,4,1,0
55448,Your own huge private oasis in the heart of Soho,verified,Asya,Manhattan,SoHo,40.72627,-74.00104,TRUE,flexible,Entire home/apt,2008,"$1,177 ",$235 ,5,24,0.69,4,1,12
63502,"Sunny, Cozy Single Room in Brooklyn",unconfirmed,Karen,Brooklyn,East Flatbush,40.64608,-73.92479,FALSE,strict,Private room,2018,"$1,177 ",$235 ,30,10,0.18,2,2,215
5134,"Modern, Bright, Airy Brooklyn Apt",unconfirmed,Ian & Sady,Brooklyn,Bedford-Stuyvesant,40.68592,-73.95502,TRUE,flexible,Entire home/apt,2014,"$1,177 ",$235 ,3,6,0.1,3,1,225
35826,Sunny Private Room near the Montrose L,unconfirmed,Megan,Brooklyn,Williamsburg,40.70859,-73.94297,TRUE,strict,Private room,2018,"$1,177 ",$235 ,3,8,0.85,5,1,0
102209,Perfect Brooklyn,verified,Rosario,Brooklyn,Flatbush,40.63987,-73.96498,TRUE,strict,Entire home/apt,2004,"$1,176 ",$235 ,30,9,0.37,5,4,117
29966,Simple and clean WaHi living room!,verified,Alyssa,Manhattan,Washington Heights,40.84697,-73.93776,TRUE,strict,Shared room,2018,"$1,176 ",$235 ,1,13,0.75,5,2,0
9160,Gorgeous Garden Apt Steps To Park,unconfirmed,Steve,Brooklyn,Prospect-Lefferts Gardens,40.65703,-73.95964,FALSE,flexible,Entire home/apt,2018,"$1,176 ",$235 ,1,2,0.04,4,1,113
82238,Green Oasis in East Williamsburg,verified,Erin,Brooklyn,Williamsburg,40.70694,-73.94511,TRUE,flexible,Private room,2020,"$1,176 ",$235 ,2,2,0.09,4,1,0
35346,Bedroom Two  in Private House Near JFK Airport,verified,Cando,Queens,South Ozone Park,40.67296,-73.79658,TRUE,flexible,Private room,2013,"$1,176 ",$235 ,1,75,9.34,5,3,57
65245,"SMALL, Cheap  Room Close  to Central Park",unconfirmed,Marlon,Manhattan,East Harlem,40.7998,-73.94313,FALSE,strict,Private room,2004,"$1,176 ",$235 ,4,6,0.15,2,11,7
64740,★BUSHWICK ★ | QUIET COZY ROOM FACING BACKYARD,verified,Jonatah,Brooklyn,Bedford-Stuyvesant,40.68322,-73.91827,FALSE,flexible,Private room,2010,"$1,176 ",$235 ,30,2,0.24,2,2,30
25322,Beautiful Private Bedroom & Bathroom,unconfirmed,Cristina,Brooklyn,Bedford-Stuyvesant,40.69156,-73.94359,FALSE,flexible,Private room,2016,"$1,176 ",$235 ,5,1,0.06,2,2,0
14280,Bedroom with full size bed in Washington Heights!,verified,David,Manhattan,Washington Heights,40.84411,-73.93784,TRUE,flexible,Private room,2008,"$1,176 ",$235 ,3,89,2.54,3,1,46
74037,Sonder | Stock Exchange | Central 1BR + Sofa Bed,unconfirmed,Sonder (NYC),Manhattan,Financial District,40.70766,-74.01114,FALSE,strict,Entire home/apt,2005,"$1,176 ",$235 ,2,1,0.7,4,327,258
59999,Modern Brooklyn Townhouse with Private Garden,verified,Hannah,Brooklyn,South Slope,40.66826,-73.99037,FALSE,flexible,Entire home/apt,2014,"$1,175 ",$235 ,3,9,0.47,2,1,19
28272,"3-Bedroom House with Hot Tub Near JFK, LGA & NYC",verified,Colin,Queens,Richmond Hill,40.70231,-73.82722,TRUE,moderate,Entire home/apt,2018,"$1,175 ",$235 ,30,9,0.47,4,1,173
68033,Huge Eco Oasis in the Heart of Brooklyn,verified,Mariusz,Brooklyn,Prospect-Lefferts Gardens,40.65817,-73.96161,FALSE,strict,Entire home/apt,2015,"$1,175 ",$235 ,30,1,0.04,2,1,0
83821,(ABC) 3 bedrooms-2 bath up to 6 pp,unconfirmed,Wilson,Queens,Flushing,40.77317,-73.82405,FALSE,flexible,Private room,2010,"$1,175 ",$235 ,2,12,0.64,3,7,35
65685,Gorgeous large sunny room in NYC!,verified,Anthony,Brooklyn,Crown Heights,40.66923,-73.94038,TRUE,strict,Private room,2019,"$1,175 ",,30,129,1.78,3,7,247
102532,Warm Cozy Manhattan Studio,unconfirmed,Patricia,Manhattan,Midtown,40.74379,-73.98795,FALSE,moderate,Entire home/apt,2006,"$1,175 ",$235 ,3,22,0.45,4,1,150
42875,Quiet Oasis in Brooklyn with Garden Patio,verified,Jenn,Brooklyn,East Flatbush,40.66039,-73.93034,TRUE,strict,Private room,2012,"$1,175 ",$235 ,1,2,0.97,5,1,0
8278,"Charm and Comfort, Heart of the UWS",unconfirmed,Christopher,Manhattan,Upper West Side,40.78576,-73.97629,FALSE,strict,Entire home/apt,2017,"$1,174 ",$235 ,7,2,0.07,3,1,96
84443,Bright Midtown Apartment,verified,Calvin,Manhattan,Hell's Kitchen,40.7653,-73.98825,TRUE,flexible,Private room,2012,"$1,174 ",$235 ,1,1,0.02,2,2,1
59329,NEW HUGE 2 ROOMS TIMES SQ CHIC NY!!,verified,Nissim,Manhattan,Hell's Kitchen,40.7649,-73.99485,FALSE,flexible,Entire home/apt,2018,"$1,174 ",$235 ,30,3,0.07,2,7,339
32830,Sunny Beautiful Loft,verified,Annette,Brooklyn,Bedford-Stuyvesant,40.69537,-73.95642,FALSE,flexible,Entire home/apt,2009,"$1,174 ",$235 ,18,4,0.32,2,1,24
4682,"NICE Williamsburg Brooklyn, 2 Bedrooms off L train",unconfirmed,Danny,Brooklyn,Williamsburg,40.71165,-73.94708,FALSE,moderate,Entire home/apt,2011,"$1,174 ",$235 ,5,51,0.83,1,1,252
40967,New Renovated Studio~Prime Upper East~W/D,verified,Izi,Manhattan,Upper East Side,40.77598,-73.94904,TRUE,moderate,Entire home/apt,2018,"$1,174 ",$235 ,30,1,0.37,4,13,276
78408,"Cute Apartment for 2-4 people, IDEAL location NYC",verified,Ryan,Queens,Sunnyside,40.74561,-73.91927,FALSE,flexible,Entire home/apt,2010,"$1,174 ",$235 ,3,2,0.07,3,1,0
12610,Cozy & Modern ..... 2 Bedroom,verified,Joann,Brooklyn,Dyker Heights,40.6186,-74.0071,TRUE,moderate,Entire home/apt,2005,"$1,174 ",$235 ,3,52,1.2,3,1,133
101331,"Cute Apartment for 2-4 people, IDEAL location NYC",verified,Ryan,Queens,Sunnyside,40.74561,-73.91927,TRUE,strict,Entire home/apt,2010,"$1,174 ",$235 ,3,2,0.07,3,1,0
96839,Cozy Apartment on Franklin Ave,verified,Anwar,Brooklyn,Crown Heights,40.67434,-73.95549,FALSE,flexible,Private room,2014,"$1,173 ",$235 ,7,3,0.25,3,1,0
62068,Catlandia!,unconfirmed,Daniella,Brooklyn,Prospect-Lefferts Gardens,40.66223,-73.95109,FALSE,strict,Private room,2006,"$1,173 ",$235 ,3,80,1.6,4,1,28
100946,East Village 1BR Apt with all the amenities,verified,Cody,Manhattan,East Village,40.7235,-73.97963,TRUE,strict,Entire home/apt,2003,"$1,173 ",$235 ,2,3,0.16,3,1,0
75207,A very conducive private area near to train statn,verified,Bilikis,Queens,Rockaway Beach,40.58891,-73.80181,TRUE,flexible,Private room,2019,"$1,173 ",$235 ,1,1,0.67,2,1,179
45911,Central Park 4 Bed Steps to Train + Ground floor!,verified,Felipe,Manhattan,Upper West Side,40.7983,-73.96115,FALSE,moderate,Entire home/apt,2003,"$1,173 ",$235 ,4,4,3.08,2,1,345
52992,4BR modern home with garden in art live/work bldng,unconfirmed,Nico,Brooklyn,Bedford-Stuyvesant,40.6827,-73.91899,FALSE,moderate,Entire home/apt,2016,"$1,173 ",$235 ,2,8,2.45,5,3,303
90688,Park Avenue 1 Bedroom,verified,CRNY Monthly Rentals,Manhattan,Midtown,40.74506,-73.98202,TRUE,strict,Entire home/apt,2007,"$1,173 ",$235 ,30,2,0.11,2,31,132
75051,COZY BEAUTIFUL HOUSE ! 2 min from the train,verified,Daniela,Brooklyn,Bushwick,40.68227,-73.90703,TRUE,moderate,Entire home/apt,2010,"$1,173 ",$235 ,2,7,3.62,5,1,342
78023,East Village 1BR Apt with all the amenities,unconfirmed,Cody,Manhattan,East Village,40.7235,-73.97963,TRUE,strict,Entire home/apt,2003,"$1,173 ",$235 ,2,3,0.16,3,1,0
60170,Duplex Brownstone sleeps 4,verified,Claudia,Brooklyn,Cobble Hill,40.68648,-73.99454,FALSE,strict,Entire home/apt,2014,"$1,173 ",$235 ,7,47,0.48,3,1,63
72413,Modern one bed in Alphabet City,verified,Stephen,Manhattan,East Village,40.72573,-73.97926,TRUE,strict,Entire home/apt,2020,"$1,173 ",$235 ,3,5,0.11,1,1,0
1248,A Little West Village Charm,unconfirmed,Thomas,Manhattan,Greenwich Village,40.73176,-73.99895,TRUE,strict,Private room,2005,"$1,173 ",$235 ,5,103,1.25,5,3,36
4952,Modern Townhouse - Chic Sunny Room - L/J/A/C Train,verified,Rony,Brooklyn,Bushwick,40.70228,-73.92824,TRUE,flexible,Private room,2007,"$1,172 ",$234 ,3,2,0.05,2,2,335
57134,Super Luxury ~Prime Location~ STUDIO ~W&D in unit~,verified,Jt,Manhattan,Upper East Side,40.77198,-73.95659,FALSE,flexible,Entire home/apt,2016,"$1,172 ",$234 ,30,5,0.42,5,59,133
81483,Cozy room in the best area! Affordable stay in NY!,unconfirmed,Elena,Manhattan,Upper East Side,40.76812,-73.95403,TRUE,flexible,Private room,2008,"$1,172 ",$234 ,1,62,2.58,3,2,258
7744,Perfect Home Away from Home in NYC!,verified,AFI Apartments,Manhattan,Upper East Side,40.7717,-73.95572,FALSE,flexible,Entire home/apt,2015,"$1,172 ",$234 ,30,2,0.05,5,29,18
77698,Super Great Williamsburg Apartment- Private Room,verified,Bridgid,Brooklyn,Williamsburg,40.7133,-73.95037,TRUE,flexible,Private room,2011,"$1,172 ",$234 ,1,1,0.04,5,1,0
66332,Nice Bayside 1 bedroom Apartment,unconfirmed,Miranda,Queens,Bayside,40.76753,-73.76249,TRUE,flexible,Entire home/apt,2007,"$1,172 ",$234 ,30,16,0.37,5,1,124
82793,Bright & Luxurious Studio in Financial District,unconfirmed,Sharon,Manhattan,Financial District,40.70744,-74.01521,FALSE,moderate,Entire home/apt,2005,"$1,172 ",$234 ,4,32,3.1,3,1,39
46212,Two Bathroom Suite steps from Central Park,unconfirmed,The Manhattan Club,Manhattan,Midtown,40.7642,-73.98035,FALSE,flexible,Private room,2014,"$1,172 ",$234 ,1,6,6,2,4,346
1491,Popular area in BK and Close to Manhattan,verified,Jackie'S Place,Brooklyn,Gowanus,40.67947,-73.98458,TRUE,flexible,Entire home/apt,2011,"$1,172 ",$234 ,31,114,1.38,3,2,131
17040,"Enjoy whole apartment, safe, 25 min ferry to NYC",verified,Sen & Ti,Staten Island,Tompkinsville,40.63598,-74.07943,FALSE,strict,Entire home/apt,2005,"$1,172 ",$234 ,2,132,3.55,3,1,254
51522,Amazing B&B Room Available,unconfirmed,Angela,Brooklyn,Bedford-Stuyvesant,40.68325,-73.95483,TRUE,moderate,Private room,2011,"$1,172 ",$234 ,30,3,0.31,5,5,237
80731,Big Bedroom in the heart of Manhattan 6r,verified,Artem,Manhattan,Hell's Kitchen,40.76398,-73.986,FALSE,flexible,Private room,2011,"$1,172 ",$234 ,3,12,0.57,3,6,179
35929,Central Harlem Home,verified,Kathleen,Manhattan,Harlem,40.80212,-73.95732,TRUE,strict,Private room,2005,"$1,172 ",$234 ,2,5,1.9,4,2,90
52412,Large private bedroom w/bathroom in private house.,verified,Rena,Brooklyn,Canarsie,40.64438,-73.89096,FALSE,flexible,Private room,2009,"$1,172 ",$234 ,2,210,5.32,3,1,98
1981,Full Bedroom in Bed-Stuy,verified,Ines,Brooklyn,Bedford-Stuyvesant,40.68411,-73.92973,TRUE,flexible,Private room,2008,"$1,172 ",$234 ,3,116,1.47,1,3,88
25629,Bright & Luxurious Studio in Financial District,unconfirmed,Sharon,Manhattan,Financial District,40.70744,-74.01521,TRUE,moderate,Entire home/apt,2005,"$1,172 ",$234 ,4,32,3.1,3,1,39
30856,Comfortable 2-Room Studio Apt with Backyard,verified,Michele & Lucien,Brooklyn,Bedford-Stuyvesant,40.68229,-73.93261,FALSE,moderate,Entire home/apt,2018,"$1,171 ",$234 ,3,48,3.08,5,1,0
47009,"Quaint cozy room in Flushing Queens, in big apt",verified,Ronny,Queens,Flushing,40.75283,-73.82561,TRUE,moderate,Private room,2021,"$1,171 ",$234 ,1,1,1,2,1,365
60198,BRIGHT PRIVATE BEDROOM,unconfirmed,Lolita,Queens,Astoria,40.76933,-73.92317,TRUE,strict,Private room,2011,"$1,171 ",$234 ,2,84,1.82,2,8,325
32687,UpperWestSide/2B1BA/SHORT-TERM/FURNISHED,unconfirmed,Amy-JPSU,Manhattan,Upper West Side,40.79874,-73.96649,TRUE,moderate,Entire home/apt,2022,"$1,171 ",$234 ,7,19,1.45,4,1,23
23023,A Chic Harlem stay,unconfirmed,Devon,Manhattan,Harlem,40.82336,-73.94512,TRUE,flexible,Private room,2006,"$1,171 ",$234 ,30,4,0.17,3,8,67
61130,"Sunny, quiet and spacious Bedroom",unconfirmed,Vanessa,Brooklyn,Greenpoint,40.72418,-73.94638,TRUE,strict,Private room,2013,"$1,171 ",$234 ,3,70,0.99,3,1,26
36778,Suite Nest /free street parking+wifi,unconfirmed,Joe,Manhattan,Stuyvesant Town,40.73092,-73.98146,FALSE,strict,Entire home/apt,2012,"$1,171 ",$234 ,30,16,2.47,2,5,164
93348,Spacious one-bedroom apartment in Cobble Hill,unconfirmed,Jennifer,Brooklyn,Gowanus,40.68084,-73.98964,TRUE,flexible,Entire home/apt,2005,"$1,171 ",$234 ,7,11,1.3,2,1,1
59169,UNTITLED at Freeman-Cozy Studio 402,verified,Karen,Manhattan,Lower East Side,40.72088,-73.99186,FALSE,flexible,Entire home/apt,2022,"$1,171 ",$234 ,2,9,1.94,2,NA,180
40708,Comfi & Cozy Studio in private house,verified,Lutz,Brooklyn,Flatbush,40.64003,-73.955,FALSE,strict,Entire home/apt,2010,"$1,171 ",$234 ,2,9,1.79,4,1,0
20072,Great location in NYC!,verified,David,Manhattan,Morningside Heights,40.80325,-73.96174,FALSE,moderate,Private room,2003,"$1,171 ",$234 ,8,3,0.1,2,1,79
8834,JFK Studio Flat with Kitchen and Private bathroom,verified,Antonio,Queens,Woodhaven,40.68982,-73.85379,TRUE,moderate,Entire home/apt,2003,"$1,171 ",$234 ,2,85,2.4,4,3,190
95106,Clean and spacious 2 bedroom w/ separate entrance,unconfirmed,Belinda,Brooklyn,East New York,40.67018,-73.88867,TRUE,strict,Entire home/apt,2008,"$1,170 ",$234 ,3,37,2.73,3,2,124
54978,Garden Apartment in Carroll Gardens,unconfirmed,Samaa,Brooklyn,Carroll Gardens,40.67992,-73.99486,FALSE,strict,Entire home/apt,2006,"$1,170 ",$234 ,4,72,0.99,3,1,168
35775,Entire 3 bedroom apartment in best location.,verified,Angel,Queens,Long Island City,40.75651,-73.93441,FALSE,flexible,Entire home/apt,2004,"$1,170 ",$234 ,3,31,3.32,2,1,238
72159,Cozy Room in the Heart of Astoria,unconfirmed,Amanda,Queens,Astoria,40.76281,-73.91554,TRUE,moderate,Private room,2013,"$1,170 ",$234 ,1,2,0.04,3,1,0
102373,Large Williamsburg room with private deck,unconfirmed,Kandi,Brooklyn,Williamsburg,40.70936,-73.9437,FALSE,flexible,Private room,2004,"$1,170 ",$234 ,2,16,1.55,3,3,215
33254,Furnished room w/ AC in Crown Heights/Clinton Hill,verified,Alex,Brooklyn,Crown Heights,40.67911,-73.96012,FALSE,moderate,Private room,2010,"$1,170 ",$234 ,2,2,0.16,5,1,0
25586,Times Square Luxe Studio with Amazing Amenities,verified,Francis,Manhattan,Hell's Kitchen,40.76557,-73.98949,FALSE,strict,Entire home/apt,2012,"$1,170 ",$234 ,3,97,4.4,4,1,60
7228,Sunny Room across CrotonaPark for Women Only Space,unconfirmed,Shawn(Ta),Bronx,Tremont,40.83875,-73.88728,FALSE,strict,Private room,2018,"$1,170 ",$234 ,3,15,0.28,3,3,331
68672,Perfect one bedroom in midtown Manhattan,unconfirmed,Stanley,Manhattan,Murray Hill,40.74814,-73.97554,FALSE,strict,Entire home/apt,2019,"$1,170 ",$234 ,30,1,0.09,4,50,365
51728,"Sohotel, Standard Queen",verified,Sohotel,Manhattan,Little Italy,40.71933,-73.994843,TRUE,moderate,Private room,2003,"$1,170 ",$234 ,1,46,1.72,2,14,256
43226,One bedroom apartment in mid-town,unconfirmed,Francesco,Manhattan,Murray Hill,40.74535,-73.9764,TRUE,flexible,Entire home/apt,2010,"$1,170 ",$234 ,2,6,1.94,3,1,0
64058,Bedford Stuyvesant Urban Hang Suite,verified,Diavanna,Brooklyn,Bedford-Stuyvesant,40.6911,-73.94591,FALSE,flexible,Entire home/apt,2018,"$1,170 ",$234 ,30,263,2.53,5,2,365
51651,Shered bathroom 4 SofaBed + loftbed + kitchen,unconfirmed,Koichi,Manhattan,Chelsea,40.75099,-73.99621,FALSE,moderate,Entire home/apt,2017,"$1,170 ",$234 ,3,6,6,4,14,57
74856,Cozy Small Bedroom on Orchard,unconfirmed,D,Manhattan,Lower East Side,40.71899,-73.98968,TRUE,moderate,Private room,2005,"$1,169 ",$234 ,1,6,2.02,2,3,155
56188,LOVELY TWO BED CONDO,verified,Manuela,Queens,Kew Gardens,40.70649,-73.83619,TRUE,flexible,Private room,2009,"$1,169 ",$234 ,2,18,2.36,5,2,365
77806,"Great deal, full equiped room in Times Square",unconfirmed,Adam,Manhattan,Theater District,40.75725,-73.98796,FALSE,flexible,Private room,2006,"$1,169 ",$234 ,1,36,1.18,3,1,0
41513,Cozy/ smallish  on 143 st & Broadway,verified,Marlon,Manhattan,Harlem,40.82153,-73.95458,TRUE,moderate,Private room,2006,"$1,169 ",$234 ,5,7,1.68,4,6,11
62455,Deluxe Queen Times SQ  Boutique Hotel.,unconfirmed,Blake,Manhattan,Theater District,40.75947,-73.98562,TRUE,flexible,Private room,2012,"$1,169 ",$234 ,1,11,1.02,3,66,365
72956,Central Park North Apt,unconfirmed,Sheying,Manhattan,Harlem,40.80171,-73.95303,TRUE,moderate,Private room,2018,"$1,169 ",$234 ,5,78,2.32,2,1,30
12253,"Cozy, E.Vill room w/ private bath!",unconfirmed,Brian,Manhattan,East Village,40.72145,-73.97881,FALSE,moderate,Private room,2007,"$1,169 ",$234 ,1,2,0.05,2,1,245
7836,Peaceful Private Room with deck & garden,unconfirmed,Marj,Brooklyn,Boerum Hill,40.68401,-73.98521,FALSE,moderate,Private room,2010,"$1,169 ",$234 ,4,120,2.36,3,1,199
87970,Charming pre-war in West Village,unconfirmed,Laura,Manhattan,West Village,40.73778,-74.00287,TRUE,moderate,Entire home/apt,2017,"$1,169 ",$234 ,2,16,0.47,3,1,16
59116,Boutique guesthouse in historic brownstone - Rm2,verified,Katie,Manhattan,Harlem,40.81318,-73.94632,TRUE,flexible,Private room,2019,"$1,169 ",$234 ,2,10,1.5,4,4,62
58730,Bright Apt Williamsburg-Greenpoint,verified,Manuela,Brooklyn,Greenpoint,40.72424,-73.94826,TRUE,flexible,Entire home/apt,2015,"$1,168 ",$234 ,1,72,0.86,4,1,68
83376,Lower East Side Spot,verified,Nick,Manhattan,Lower East Side,40.71881,-73.98378,FALSE,flexible,Entire home/apt,2006,"$1,168 ",$234 ,2,5,0.23,4,1,0
57731,The Residences at W New York - Downtown - Apt 28B,verified,Zeus,Manhattan,Financial District,40.70952,-74.01468,FALSE,strict,Entire home/apt,2018,"$1,168 ",$234 ,30,1,0.53,5,34,340
49598,⋆Brooklyn Brownstone Suite⋆Great Location⋆,verified,Sam,Brooklyn,Prospect-Lefferts Gardens,40.66333,-73.95191,TRUE,flexible,Entire home/apt,2003,"$1,168 ",$234 ,3,143,3.61,2,1,118
60611,Billionaire's Row w/ Free Daily Breakfast and Wine,verified,Paul,Manhattan,Midtown,40.76432,-73.97793,TRUE,moderate,Entire home/apt,2006,"$1,168 ",$234 ,4,20,0.29,5,2,360
66135,Access to Both N/W & M/R Line :Small Cozy room,verified,Soya,Queens,Astoria,40.75997,-73.91701,TRUE,flexible,Private room,2011,"$1,168 ",$234 ,30,2,0.12,2,171,30
20281,Nice and spacious 3BR home in Queens,verified,David,Queens,East Elmhurst,40.7617,-73.89134,TRUE,flexible,Entire home/apt,2004,"$1,168 ",$234 ,2,32,1.03,3,1,55
42861,"Beautiful, large, sunny private bedroom available",unconfirmed,Alexis,Brooklyn,Prospect Heights,40.67953,-73.97334,TRUE,flexible,Private room,2008,"$1,168 ",$234 ,20,1,0.49,3,1,0
75468,"Beautiful, large, sunny private bedroom available",verified,Alexis,Brooklyn,Prospect Heights,40.67953,-73.97334,FALSE,strict,Private room,2008,"$1,168 ",$234 ,20,1,0.49,3,1,0
55594,Spacious Historic Williamsburg 2/1.5 Townhouse,verified,Irie,Brooklyn,Williamsburg,40.71,-73.96378,TRUE,strict,Entire home/apt,2011,"$1,168 ",$234 ,6,218,2.13,4,1,73
51781,Simple 2-Bedroom apartment in Queens near transit,verified,Qing,Queens,Flushing,40.75504,-73.805,FALSE,flexible,Entire home/apt,2003,"$1,168 ",$234 ,1,44,5.55,4,11,312
2285,Private Room in Large Apt w/ Gorgeous Park View,unconfirmed,Ife,Manhattan,Harlem,40.80602,-73.95362,FALSE,strict,Private room,2011,"$1,167 ",$233 ,2,233,3.12,2,1,12
23898,Extra Large 1br in the heart of Astoria!,unconfirmed,Kristin,Queens,Astoria,40.76272,-73.92656,FALSE,moderate,Entire home/apt,2022,"$1,167 ",$233 ,7,1,0.05,5,1,0
41378,Sonder | Stock Exchange | Restful 1BR + Kitchen,verified,Sonder (NYC),Manhattan,Financial District,40.70752,-74.01046,TRUE,strict,Entire home/apt,2015,"$1,167 ",$233 ,2,7,1.52,5,327,306
77364,"1 Bedroom in the Heart of The Upper East Side, NY",unconfirmed,Joe,Manhattan,Upper East Side,40.7732,-73.95857,FALSE,strict,Private room,2020,"$1,167 ",$233 ,2,14,0.46,1,1,0
73594,Private room only 1 min from Empire state Building,verified,Rina,Manhattan,Midtown,40.74995,-73.98602,TRUE,flexible,Private room,2008,"$1,167 ",$233 ,3,7,0.44,4,1,0
59303,Cozy sunny room in the heart of the city,verified,Ahmed,Manhattan,Midtown,40.75527,-73.96553,TRUE,strict,Private room,2016,"$1,167 ",$233 ,2,157,1.56,4,1,363
41199,Harlem Sweets Home,verified,Terrence & Skye,Manhattan,Harlem,40.82711,-73.94143,TRUE,strict,Private room,2022,"$1,167 ",$233 ,2,18,3.8,2,3,72
85542,SUNNY 1BR / 1B UES APT,verified,Nina,Manhattan,Upper East Side,40.77458,-73.95116,FALSE,moderate,Entire home/apt,2008,"$1,167 ",$233 ,3,2,0.05,4,1,143
81062,Extra Large 1br in the heart of Astoria!,verified,Kristin,Queens,Astoria,40.76272,-73.92656,FALSE,strict,Entire home/apt,2022,"$1,167 ",$233 ,7,1,0.05,5,1,0
72770,"Bright, Light & Sunny Room",unconfirmed,Jack,Manhattan,Chinatown,40.71707,-73.99066,TRUE,moderate,Private room,2018,"$1,167 ",$233 ,3,1,0.02,4,2,0
73985,Sonder | Stock Exchange | Restful 1BR + Kitchen,verified,Sonder (NYC),Manhattan,Financial District,40.70752,-74.01046,FALSE,flexible,Entire home/apt,2015,"$1,167 ",$233 ,2,7,1.52,5,327,306
100287,"1 Bedroom in the Heart of The Upper East Side, NY",unconfirmed,Joe,Manhattan,Upper East Side,40.7732,-73.95857,TRUE,strict,Private room,2020,"$1,167 ",$233 ,2,14,0.46,1,1,0
75682,Beautiful 600 ft studio in Soho,unconfirmed,Jonah,Manhattan,SoHo,40.72506,-74.00876,TRUE,strict,Entire home/apt,2010,"$1,166 ",$233 ,3,2,0.82,3,1,0
36470,"Gorgeous sunny, queen size room Brooklyn",verified,Jane,Brooklyn,Bushwick,40.6911,-73.90942,TRUE,flexible,Private room,2010,"$1,166 ",$233 ,1,2,0.25,4,1,29
66524,"Right Direction Cottage 3 Quiet, Clean and Private",unconfirmed,Olufemi,Staten Island,West Brighton,40.63033,-74.11345,TRUE,strict,Private room,2012,"$1,166 ",$233 ,30,22,0.73,3,3,3
57664,"Lovely open concept loft near subway, restaurants.",unconfirmed,Eduardo,Queens,Astoria,40.7681,-73.91982,FALSE,flexible,Entire home/apt,2003,"$1,166 ",$233 ,1,14,2.15,3,1,266
12845,Cozy Apartment in Spanish Harlem,unconfirmed,Rachel,Manhattan,East Harlem,40.79197,-73.94711,FALSE,strict,Entire home/apt,2007,"$1,166 ",$233 ,1,1,0.03,4,1,80
21788,MAGNIFICENT apartment in Williamsburg with Balcony,unconfirmed,Gaël-Etienne,Brooklyn,Williamsburg,40.71397,-73.94873,TRUE,flexible,Entire home/apt,2018,"$1,166 ",$233 ,2,22,0.78,4,1,0
11030,Room in 4 Bedroom Brooklyn Apt,unconfirmed,Anthony,Brooklyn,Bushwick,40.68623,-73.91374,FALSE,moderate,Private room,2022,"$1,166 ",$233 ,1,2,0.06,1,26,107
52549,UNTITLED at Freeman - Tower Balcony Studio 1304,verified,Karen,Manhattan,Nolita,40.72284,-73.9933,TRUE,flexible,Entire home/apt,2020,"$1,165 ",$233 ,2,26,3.51,3,208,205
32066,"Large Manhattan Apt 3 BED/2 FULL BATH, Midtown NYC",unconfirmed,Masako,Manhattan,Murray Hill,40.74523,-73.97334,FALSE,strict,Entire home/apt,2015,"$1,165 ",$233 ,5,3,0.25,4,1,12
20951,Huge quiet modern oasis,verified,Tal,Brooklyn,Prospect Heights,40.67915,-73.96913,TRUE,flexible,Entire home/apt,2010,"$1,165 ",$233 ,2,2,0.11,2,1,0
65083,Quiet minimal clean,verified,Emma,Manhattan,East Village,40.73188,-73.98856,FALSE,moderate,Entire home/apt,2003,"$1,165 ",$233 ,2,30,0.32,4,2,179
1548,Peaceful double room in Brooklyn Brownstone,verified,Chantille & Linda,Brooklyn,Prospect Heights,40.67793,-73.96577,TRUE,flexible,Private room,2012,"$1,165 ",$233 ,4,190,2.3,5,2,272
14687,"1 bedroom in Astoria, Queens",verified,Joe,Queens,Long Island City,40.76485,-73.93959,FALSE,flexible,Private room,2004,"$1,165 ",$233 ,1,1,0.03,4,1,112
716,Chic + Stylish room in heart of LowerEastSide NYC!,verified,Watson,Manhattan,Lower East Side,40.7193,-73.98966,FALSE,strict,Private room,2016,"$1,165 ",$233 ,5,10,0.46,4,1,355
93158,"SHARE;Cheapest,Silent,Clean and Safe in New York",verified,Erin V.,Queens,Sunnyside,40.73307,-73.91995,TRUE,flexible,Shared room,2018,"$1,165 ",$233 ,1,51,3.02,3,3,140
50983,★PRIME Location! Midtown Private Room 1-Bunk bed★,unconfirmed,Ian,Manhattan,Chelsea,40.74706,-73.99131,TRUE,flexible,Private room,2007,"$1,165 ",$233 ,2,76,3.02,3,4,19
78115,Huge quiet modern oasis,verified,Tal,Brooklyn,Prospect Heights,40.67915,-73.96913,TRUE,moderate,Entire home/apt,2010,"$1,165 ",$233 ,2,2,0.11,2,1,0
66379,Manhattan Cozy 1 Bed/1 Bath,verified,Liudmila,Manhattan,Washington Heights,40.85297,-73.94102,FALSE,flexible,Entire home/apt,2016,"$1,164 ",$233 ,30,1,0.06,4,1,0
33051,Private Room! TRENDY location!,verified,Jasmine,Manhattan,Greenwich Village,40.7278,-73.99976,TRUE,strict,Private room,2014,"$1,164 ",$233 ,1,29,2.28,3,10,245
54376,Brodway- Double Double Room,verified,Casamia 36,Manhattan,Hell's Kitchen,40.75659,-73.99639,TRUE,strict,Hotel room,2019,"$1,164 ",$233 ,1,84,2.8,4,12,363
82120,5 min subway 20 to city Cozy Value Room near SUNY,verified,Renee,Brooklyn,East Flatbush,40.6534,-73.9439,FALSE,flexible,Private room,2018,"$1,164 ",$233 ,1,24,1.12,4,2,0
46356,Private Cozy Studio in Flushing(5K),verified,Northern Star Realty,Queens,Flushing,40.765,-73.81875,TRUE,flexible,Entire home/apt,2016,"$1,164 ",$233 ,1,12,10.91,5,4,159
52474,Captivating New 2 Bedroom Apartment,verified,Qing,Queens,Elmhurst,40.73812,-73.88313,FALSE,flexible,Entire home/apt,2013,"$1,164 ",$233 ,1,76,3.17,2,11,232
25224,Beautiful bright  room Near JFK & J Train#2,unconfirmed,Lynn L,Queens,Richmond Hill,40.69584,-73.84727,TRUE,moderate,Private room,2018,"$1,164 ",$233 ,1,59,2.52,5,4,354
39433,Cozy Private BR - Less Than Five Mins To Subway,unconfirmed,Jay,Brooklyn,Bedford-Stuyvesant,40.67935,-73.90838,FALSE,flexible,Private room,2008,"$1,164 ",$233 ,1,9,1.38,5,6,173
9488,Cosy 1 bed in trendy East Village!,verified,Kristine,Manhattan,East Village,40.72457,-73.98142,FALSE,flexible,Entire home/apt,2010,"$1,164 ",$233 ,2,5,0.11,1,1,212
5508,Gorgeous 1BD Best Gramercy Park,unconfirmed,Mike,Manhattan,Gramercy,40.73731,-73.98338,TRUE,moderate,Entire home/apt,2004,"$1,163 ",$233 ,30,2,0.04,3,52,241
3258,Sunny Room near all,verified,Rani,Brooklyn,Bedford-Stuyvesant,40.67769,-73.92303,FALSE,flexible,Private room,2005,"$1,163 ",$233 ,25,16,0.24,1,3,111
94169,Ditmas Park Victorian Home,unconfirmed,Jerry,Brooklyn,Flatbush,40.64401,-73.96047,FALSE,moderate,Entire home/apt,2011,"$1,163 ",$233 ,7,1,0.38,5,2,77
16663,Cozy room with Queen bed in spacious loft.,verified,Yaron,Bronx,Port Morris,40.80872,-73.93051,FALSE,moderate,Private room,2017,"$1,163 ",$233 ,2,59,1.59,4,4,197
61693,"Private room in Astoria, NY",verified,Liliana,Queens,Astoria,40.75619,-73.91852,FALSE,strict,Private room,2015,"$1,163 ",$233 ,30,45,0.67,5,1,364
54952,Attractive Charming n Modern Townhouse w/ backyard,unconfirmed,Angi,Bronx,Mott Haven,40.8098,-73.92101,FALSE,moderate,Private room,2018,"$1,162 ",$232 ,1,4,2.45,3,8,289
45094,Luxury condo 10 mins from Times Sq NY!,unconfirmed,Evelyn,Queens,Long Island City,40.74885,-73.9526,TRUE,strict,Entire home/apt,2007,"$1,162 ",$232 ,3,1,0.81,5,7,23
85204,Charming 1BR by Central Park,unconfirmed,Tanya,Manhattan,Upper West Side,40.78495,-73.9731,FALSE,moderate,Entire home/apt,2020,"$1,162 ",$232 ,4,1,0.08,4,1,82
97282,*NO GUEST SERVICE FEE* Luxury Midtown One Bedroom Suite with Kitchen,unconfirmed,Red Awning,Manhattan,Midtown,40.75294,-73.96731,TRUE,moderate,Entire home/apt,2017,"$1,162 ",$232 ,3,2,0.4,2,49,235
94124,Prospect Heights Paradise,unconfirmed,Patti,Brooklyn,Prospect Heights,40.67999,-73.96462,FALSE,moderate,Entire home/apt,2003,"$1,162 ",$232 ,7,17,1.22,2,2,129
100547,CRAZY SPACE & CRAZY SUN IN BUSHWICK,unconfirmed,Kim,Brooklyn,Bushwick,40.6957,-73.91875,FALSE,flexible,Private room,2019,"$1,162 ",$232 ,25,61,1.96,4,1,0
53120,Bright and charming 1 BR apartment East Village!,verified,Javier,Manhattan,East Village,40.72784,-73.98071,FALSE,flexible,Entire home/apt,2016,"$1,161 ",$232 ,2,3,0.31,3,1,0
69756,2 Beds/Queen & Full Beautiful Room 40 minsT.Square,verified,Enrique,Bronx,Allerton,40.85956,-73.87067,TRUE,strict,Private room,2003,"$1,161 ",$232 ,2,169,2.07,1,4,306
75120,Large 2 bedroom Williamsburg loft apartment,unconfirmed,Joseph,Brooklyn,Williamsburg,40.71177,-73.95629,FALSE,moderate,Entire home/apt,2005,"$1,161 ",$232 ,3,6,1.51,2,1,38
50013,Cozy Brooklyn Apartment 2 minutes from Subway,unconfirmed,Nick,Brooklyn,Bedford-Stuyvesant,40.68216,-73.91092,FALSE,strict,Entire home/apt,2015,"$1,161 ",$232 ,4,37,1.27,5,1,45
36354,Small room for 1 Person-Best Value,unconfirmed,Kathy,Brooklyn,Borough Park,40.63448,-74.00563,FALSE,strict,Private room,2004,"$1,161 ",$232 ,1,2,0.24,4,10,365
42513,Large 2 bedroom Williamsburg loft apartment,verified,Joseph,Brooklyn,Williamsburg,40.71177,-73.95629,TRUE,flexible,Entire home/apt,2005,"$1,161 ",$232 ,3,6,1.51,2,1,38
61804,IDEAL 3 WILLIAMSBURG Brooklyn @Lorimer L train!,unconfirmed,Krasimir,Brooklyn,Williamsburg,40.71212,-73.95168,TRUE,moderate,Private room,2004,"$1,161 ",$232 ,2,5,1.27,4,4,25
35006,"Bedroom in Brooklyn Apt, close to Prospect Park!",unconfirmed,Luz Carime,Brooklyn,Flatbush,40.64815,-73.96862,TRUE,flexible,Private room,2006,"$1,161 ",$232 ,2,3,0.32,4,1,0
27844,Enjoy Harlem,unconfirmed,Adrianne,Manhattan,Harlem,40.81029,-73.94344,FALSE,strict,Entire home/apt,2013,"$1,160 ",$232 ,3,1,0.05,4,1,0
40749,Bright and Airy Freeman Street loft,verified,Syed,Brooklyn,Greenpoint,40.73444,-73.95658,TRUE,moderate,Entire home/apt,2021,"$1,160 ",$232 ,30,3,0.53,3,1,209
70576,"spacious, tranquil east village apt",unconfirmed,Parker (& Juan),Manhattan,Lower East Side,40.71646,-73.97656,FALSE,moderate,Entire home/apt,2006,"$1,160 ",$232 ,2,32,0.44,4,1,184
26012,Huge Room in Beautiful New Renovated Apartment,verified,Bryan,Queens,Astoria,40.77028,-73.92112,TRUE,strict,Private room,2014,"$1,160 ",$232 ,5,20,0.89,4,1,16
74938,Brooklyn stylish studio apartment!,verified,James And Laureta,Brooklyn,Bedford-Stuyvesant,40.68543,-73.95415,TRUE,strict,Entire home/apt,2011,"$1,160 ",$232 ,1,14,3.39,5,5,55
34201,The Brooklyn Blue House 4,unconfirmed,Giana,Brooklyn,Canarsie,40.64651,-73.90043,TRUE,flexible,Private room,2014,"$1,160 ",$232 ,2,28,3.19,5,4,178
1435,Loft Room in Heart of Williamsburg,verified,Ryan,Brooklyn,Williamsburg,40.71827,-73.96259,FALSE,strict,Private room,2008,"$1,160 ",$232 ,2,3,0.04,2,1,285
51366,"Pure Luxury- HellsKitchen, Time Square & Broadway",unconfirmed,Kenneth,Manhattan,Hell's Kitchen,40.76116,-73.9918,TRUE,flexible,Private room,2015,"$1,160 ",$232 ,1,5,5,4,2,16
87750,Holiday @ Times Square One bedroom!,unconfirmed,Jowelle,Manhattan,Hell's Kitchen,40.76161,-73.98995,FALSE,flexible,Entire home/apt,2022,"$1,160 ",$232 ,4,82,2.29,4,5,228
83176,Huge Room in Beautiful New Renovated Apartment,verified,Bryan,Queens,Astoria,40.77028,-73.92112,FALSE,moderate,Private room,2014,"$1,160 ",$232 ,5,20,0.89,4,1,16
77207,Bed-Stuy Style & Comfort 2bed Private Living Space,unconfirmed,Mark,Brooklyn,Bedford-Stuyvesant,40.68792,-73.92411,FALSE,flexible,Entire home/apt,2006,"$1,160 ",$232 ,2,213,6.9,2,3,37
90439,90 Washington St Luxury apartment,verified,Raymond,Manhattan,Financial District,40.70742,-74.01544,TRUE,strict,Entire home/apt,2019,"$1,160 ",$232 ,30,1,0.03,3,10,342
79912,Greenwich Village Apartment,verified,Andrei,Manhattan,Greenwich Village,40.72827,-74.00083,FALSE,strict,Entire home/apt,2020,"$1,159 ",$232 ,10,2,0.08,1,1,0
5428,Room in sunny & plant filled apt!,verified,Lian,Brooklyn,Crown Heights,40.67297,-73.95489,TRUE,moderate,Private room,2018,"$1,159 ",$232 ,1,3,0.05,4,1,247
97759,Serene Bedroom & Boudoir in Design Loft,verified,Sophia,Brooklyn,Greenpoint,40.73439,-73.95839,TRUE,strict,Private room,2021,"$1,159 ",$232 ,5,8,0.79,5,2,179
38003,Astoria's Tranquil Home Away From Home,verified,Kat,Queens,Ditmars Steinway,40.76992,-73.89719,FALSE,strict,Entire home/apt,2022,"$1,159 ",$232 ,5,3,0.76,4,1,6
28784,Spacious Brooklyn loft in Clinton Hill,unconfirmed,Devin,Brooklyn,Bedford-Stuyvesant,40.69216,-73.96011,FALSE,strict,Private room,2005,"$1,159 ",$232 ,2,17,0.92,5,1,72
56380,One Bedroom Studio Near Long Island City,unconfirmed,Anthony,Queens,Maspeth,40.73069,-73.91994,FALSE,strict,Entire home/apt,2019,"$1,159 ",$232 ,1,28,3.62,4,1,153
87515,87th ST ** ALL NEW ** Central PARK,unconfirmed,Mor,Manhattan,Upper East Side,40.77773,-73.94938,TRUE,strict,Entire home/apt,2009,"$1,159 ",$232 ,2,110,3.02,2,1,287
611,Apt with EmpireState view-Subway around the corner,unconfirmed,Tara,Brooklyn,Bedford-Stuyvesant,40.69046,-73.95167,FALSE,strict,Entire home/apt,2017,"$1,159 ",$232 ,2,35,0.4,4,1,7
90665,LIC Room w/ Clean & Comfy Amenities + 6 Trains,verified,Felix,Queens,Long Island City,40.7495,-73.93676,TRUE,moderate,Private room,2007,"$1,159 ",$232 ,3,56,4.48,3,2,42
68532,Cozy Studio,unconfirmed,Jeniffer,Manhattan,Hell's Kitchen,40.76354,-73.99283,FALSE,strict,Entire home/apt,2014,"$1,159 ",$232 ,30,3,0.21,2,31,270
80621,Modern 1BD Condo in Upper Eastside,unconfirmed,Stephanie,Manhattan,Upper East Side,40.76269,-73.96053,TRUE,moderate,Entire home/apt,2009,"$1,159 ",$232 ,4,1,0.05,4,1,0
34826,Serene Bedroom & Boudoir in Design Loft,verified,Sophia,Brooklyn,Greenpoint,40.73439,-73.95839,FALSE,flexible,Private room,2021,"$1,159 ",$232 ,5,8,0.79,5,2,179
52541,Short & Sweet Stay in The New NYC,verified,Kevin,Queens,Long Island City,40.75438,-73.93245,TRUE,moderate,Entire home/apt,2003,"$1,158 ",$232 ,2,33,4.06,4,4,117
42442,1 room in 2BR luxury Apartment in Bushwick,verified,Daniel,Brooklyn,Bushwick,40.70158,-73.92257,FALSE,moderate,Private room,2014,"$1,158 ",$232 ,2,1,0.28,3,1,88
32334,✈ NYC/Travelers. New Private Access Room Bed Full,verified,Skarly & Ming,Brooklyn,Bushwick,40.6978,-73.92607,TRUE,strict,Private room,2013,"$1,158 ",$232 ,2,25,1.97,5,2,54
67313,Roomy and relaxing 2 B Brooklyn NY,verified,Nutrice,Brooklyn,Prospect-Lefferts Gardens,40.65614,-73.95171,TRUE,flexible,Private room,2020,"$1,158 ",$232 ,1,3,0.12,3,5,0
97648,Cozy 1 bedroom apartment in trendy Bushwick.,unconfirmed,Jorge,Brooklyn,Bushwick,40.6944,-73.9242,TRUE,moderate,Entire home/apt,2015,"$1,158 ",$232 ,3,26,2.43,2,1,3
72363,The Manhattan Studio,unconfirmed,Henri,Manhattan,Midtown,40.75513,-73.96446,TRUE,moderate,Entire home/apt,2006,"$1,158 ",$232 ,4,20,1.46,2,1,13
12914,Sunny Apt by Central Park North,verified,Grace,Manhattan,Harlem,40.79982,-73.95375,FALSE,flexible,Entire home/apt,2018,"$1,158 ",$232 ,2,18,0.42,1,1,304
45482,Uptown Experience on Central Park,unconfirmed,Britt,Manhattan,East Harlem,40.79614,-73.94838,TRUE,moderate,Entire home/apt,2016,"$1,158 ",$232 ,1,5,3.95,4,1,327
34715,Cozy 1 bedroom apartment in trendy Bushwick.,unconfirmed,Jorge,Brooklyn,Bushwick,40.6944,-73.9242,FALSE,flexible,Entire home/apt,2015,"$1,158 ",$232 ,3,26,2.43,2,1,3
23258,"Quiet, Cozy UES Studio Near the Subway",unconfirmed,Amy,Manhattan,Upper East Side,40.76844,-73.95341,FALSE,flexible,Entire home/apt,2003,"$1,157 ",$231 ,3,10,0.39,1,1,0
26417,Spacious Private room 10 minutes to Manhattan,unconfirmed,Maxim,Brooklyn,Williamsburg,40.70911,-73.95288,TRUE,strict,Private room,2020,"$1,157 ",$231 ,2,79,4.56,3,1,349
20238,Spacious and Cozy Room in the East Village,unconfirmed,Brecht,Manhattan,Stuyvesant Town,40.73052,-73.9778,FALSE,moderate,Private room,2015,"$1,157 ",$231 ,3,16,0.51,2,1,9
57690,"Safe townhouse suite, private bath, garden use",unconfirmed,Ann,Manhattan,West Village,40.72986,-74.00299,FALSE,flexible,Private room,2016,"$1,157 ",$231 ,3,263,2.53,4,2,55
65741,"Brooklyn's Best - Sun, Air, & Style #10327",verified,Steve,Brooklyn,Bushwick,40.70504,-73.91828,TRUE,strict,Entire home/apt,2004,"$1,157 ",$231 ,30,6,0.08,2,1,0
83581,Spacious Private room 10 minutes to Manhattan,verified,Maxim,Brooklyn,Williamsburg,40.70911,-73.95288,TRUE,flexible,Private room,2020,"$1,157 ",$231 ,2,79,4.56,3,1,349
39997,Cozy private room in Greenwich Village,verified,Bobby,Manhattan,Greenwich Village,40.72836,-73.99953,TRUE,strict,Private room,2007,"$1,157 ",$231 ,7,3,0.94,3,1,88
55449,MANHATTAN MANSION | ROOFTOP PATIO| ASK ABOUT SALE!,verified,Sasha,Manhattan,Washington Heights,40.83586,-73.94058,TRUE,moderate,Entire home/apt,2005,"$1,157 ",$231 ,3,69,1.91,4,1,243
73028,Zen Room in Crown Heights Brooklyn,verified,Laura,Brooklyn,Crown Heights,40.67255,-73.94914,TRUE,strict,Private room,2022,"$1,156 ",$231 ,500,10,0.22,3,1,365
87876,"Quirky, art filled Greenpoint  Apartment!",verified,Brooke,Brooklyn,Greenpoint,40.72488,-73.94085,TRUE,flexible,Entire home/apt,2020,"$1,156 ",$231 ,1,39,1.1,3,2,29
3527,COZY CLEAN BDR 3 MINUTE WALK FROM GRAND CENTRAL,unconfirmed,David,Manhattan,Murray Hill,40.74961,-73.97865,TRUE,flexible,Private room,2011,"$1,156 ",$231 ,2,10,0.32,3,2,241
72042,Spacious Chelsea Apartment w/Roof!,verified,Kevin,Manhattan,Chelsea,40.74221,-73.99822,FALSE,flexible,Entire home/apt,2014,"$1,156 ",$231 ,3,1,0.02,3,2,0
50093,UNTITLED at Freeman - Bowery King Studio 1010,unconfirmed,Karen,Manhattan,Lower East Side,40.72173,-73.99346,FALSE,moderate,Entire home/apt,2010,"$1,156 ",$231 ,2,12,1.81,3,208,105
71440,Authentic Brownstone New York Living,verified,Paul,Brooklyn,Bedford-Stuyvesant,40.68247,-73.94119,FALSE,strict,Entire home/apt,2015,"$1,156 ",$231 ,2,34,0.76,5,2,337
57653,Cozy Enhanced Rm near PPark! Ideal for long stays!,unconfirmed,Chanta,Brooklyn,Flatbush,40.65245,-73.95607,TRUE,moderate,Private room,2006,"$1,156 ",$231 ,4,11,0.8,4,3,0
42175,beautiful and clean  studio apartmen in Astoria,unconfirmed,Abraham,Queens,Astoria,40.76604,-73.93108,TRUE,moderate,Entire home/apt,2007,"$1,156 ",$231 ,2,6,1.54,3,1,309
57185,Beautiful Loft w Roof Deck Ideal for Photo Shoots,verified,Ute,Brooklyn,Gowanus,40.68096,-73.98641,TRUE,flexible,Entire home/apt,2011,"$1,156 ",$231 ,1,77,0.65,2,2,351
62329,MODERN ROOM IN CHARMING AREA+ SWEET ROOF A,unconfirmed,Suzette And Graham,Brooklyn,Clinton Hill,40.69357,-73.96197,TRUE,strict,Private room,2007,"$1,156 ",$231 ,30,4,0.3,3,19,338
2868,Private Room in Designer's NYC Apt,verified,Andrew,Manhattan,SoHo,40.72391,-73.99879,FALSE,strict,Private room,2017,"$1,156 ",$231 ,2,141,2,2,2,166
97149,"Hi-ceiling, Studio, Flatiron NYC",unconfirmed,Aleksandar,Manhattan,Kips Bay,40.73933,-73.9797,FALSE,strict,Entire home/apt,2007,"$1,155 ",$231 ,7,13,1.26,4,1,292
34216,"Hi-ceiling, Studio, Flatiron NYC",unconfirmed,Aleksandar,Manhattan,Kips Bay,40.73933,-73.9797,TRUE,moderate,Entire home/apt,2007,"$1,155 ",$231 ,7,13,1.26,4,1,292
21754,Large one bedroom in historic Clinton Hill,verified,John,Brooklyn,Clinton Hill,40.69478,-73.96126,FALSE,strict,Entire home/apt,2018,"$1,155 ",$231 ,3,34,2.95,2,1,54
42619,Clean Room in Bushwick Brooklyn,unconfirmed,Leoluis,Brooklyn,Bushwick,40.69179,-73.91404,TRUE,moderate,Private room,2022,"$1,155 ",$231 ,1,24,6.61,2,1,167
100811,Large apt in prime carol gardens,unconfirmed,Sol,Brooklyn,Carroll Gardens,40.67933,-73.99562,TRUE,moderate,Entire home/apt,2015,"$1,155 ",$231 ,1,82,2.67,2,5,152
89819,East Village Jewel,verified,Esther,Manhattan,East Village,40.72757,-73.98439,FALSE,strict,Private room,2006,"$1,155 ",$231 ,3,12,0.37,2,1,4
20027,1 Block to Central Park Manhattan Luxury Condo,verified,Azure,Manhattan,Midtown,40.7635,-73.97677,TRUE,strict,Entire home/apt,2015,"$1,155 ",$231 ,10,15,1.27,4,1,302
47341,Private Bedroom in cozy apartment,verified,Renee,Brooklyn,Bedford-Stuyvesant,40.69386,-73.93256,FALSE,flexible,Private room,2018,"$1,155 ",$231 ,4,1,1,4,3,325
65350,Wonderful 1BR Apartment in Manhattan Center,verified,Alexander,Manhattan,Chelsea,40.75382,-73.99923,TRUE,strict,Entire home/apt,2010,"$1,155 ",$231 ,30,13,0.45,2,1,0
31075,"Paradise - comfortable, spacious loft apartment",verified,Ari,Manhattan,Chinatown,40.71396,-73.99771,FALSE,flexible,Entire home/apt,2015,"$1,155 ",$231 ,2,3,0.21,3,1,5
5228,BKLYN BROWNSTONE: The Stuyvesant,unconfirmed,Anthony/Joanne,Brooklyn,Bedford-Stuyvesant,40.6825,-73.92519,FALSE,flexible,Entire home/apt,2011,"$1,155 ",$231 ,3,135,2.27,5,2,345
47111,AMAZING LOCATION IN WILLIASMBURG,verified,Martin,Brooklyn,Williamsburg,40.70823,-73.95702,TRUE,strict,Entire home/apt,2016,"$1,155 ",$231 ,2,4,4,2,1,154
97484,Little Oasis,unconfirmed,Olvin,Brooklyn,Brownsville,40.6604,-73.91227,TRUE,strict,Private room,2012,"$1,155 ",$231 ,2,32,2.85,2,3,0
33512,"Clean, quiet studio apartment - Gramercy/Kips Bay!",verified,Despina,Manhattan,Kips Bay,40.74174,-73.98162,TRUE,strict,Entire home/apt,2016,"$1,155 ",$231 ,25,7,0.58,4,1,0
61807,Spacious and Quiet 1 Bedroom Duplex on UWS,verified,Adam,Manhattan,Upper West Side,40.78074,-73.97684,TRUE,flexible,Entire home/apt,2008,"$1,155 ",$231 ,30,1,0.33,2,3,232
78918,Large one bedroom in historic Clinton Hill,verified,John,Brooklyn,Clinton Hill,40.69478,-73.96126,TRUE,moderate,Entire home/apt,2018,"$1,155 ",$231 ,3,34,2.95,2,1,54
28021,Private Bedroom in West Village/Chelsea,unconfirmed,Dante,Manhattan,Chelsea,40.74045,-74.00047,FALSE,moderate,Private room,2018,"$1,154 ",$231 ,3,8,0.59,3,1,37
70422,Private Brownstone,verified,Amy,Manhattan,East Harlem,40.79417,-73.94376,FALSE,moderate,Entire home/apt,2015,"$1,154 ",$231 ,31,235,3.14,5,2,84
30846,Bright 2BR  Private Backyard 25 min to  Manhattan!,verified,Eva,Brooklyn,Bedford-Stuyvesant,40.68311,-73.93124,TRUE,strict,Entire home/apt,2004,"$1,154 ",$231 ,2,60,3.88,2,1,297
40977,Vibrant Bedroom in Upper West Side 107,verified,Eyal,Manhattan,Upper West Side,40.79887,-73.95968,FALSE,strict,Private room,2012,"$1,154 ",$231 ,30,1,1,4,32,342
75348,Cozy Studio Apt Brooklyn Close to Brighton & Coney,verified,Ed,Brooklyn,Gravesend,40.58822,-73.97294,FALSE,moderate,Entire home/apt,2019,"$1,154 ",$231 ,30,1,0.31,4,6,347
38913,Newly built stylish retreat. A couple's haven...,verified,Kazuya,Queens,Maspeth,40.73998,-73.90113,TRUE,strict,Private room,2020,"$1,154 ",$231 ,30,1,0.43,4,103,251
27541,The Kipsey - A One Bedroom Apartment,verified,Wendy,Manhattan,Kips Bay,40.7398,-73.98163,TRUE,moderate,Entire home/apt,2018,"$1,154 ",$231 ,2,1,0.05,2,1,3
63135,Chic artist's loft in best Williamsburg location,verified,Maya,Brooklyn,Williamsburg,40.71647,-73.95818,FALSE,flexible,Entire home/apt,2013,"$1,154 ",$231 ,6,3,0.39,2,1,308
79080,Fantastic Studio in Brooklyn's core,unconfirmed,Jae,Brooklyn,Fort Greene,40.68773,-73.97902,TRUE,moderate,Entire home/apt,2018,"$1,154 ",$231 ,2,15,0.62,4,1,66
81157,Gorgeous room on the Upper West Side,unconfirmed,Erika,Manhattan,Morningside Heights,40.80723,-73.96222,TRUE,strict,Private room,2018,"$1,154 ",$231 ,5,18,0.72,5,1,157
16970,"*Cozy apt Manhattan,Near Central Park !*",verified,Anna,Manhattan,Upper East Side,40.77081,-73.95216,FALSE,strict,Private room,2017,"$1,154 ",$231 ,1,65,1.76,3,1,42
10554,Beautiful 1 bedroom in city center,unconfirmed,Gia,Manhattan,Midtown,40.75932,-73.96396,FALSE,strict,Entire home/apt,2014,"$1,154 ",$231 ,2,2,0.04,2,1,352
24879,Bright Bedroom in Brooklyn Home,verified,Liana,Brooklyn,Williamsburg,40.71493,-73.95995,FALSE,strict,Private room,2005,"$1,154 ",$231 ,14,1,0.06,4,1,0
73752,Beautiful huge room with a lovely Bay Window,verified,Annie,Manhattan,Harlem,40.8282,-73.94973,FALSE,moderate,Private room,2009,"$1,153 ",$231 ,30,2,0.16,3,1,0
67400,Sun-Drenched Bushwick Loft,verified,Christina,Brooklyn,Bedford-Stuyvesant,40.68743,-73.9197,FALSE,strict,Private room,2005,"$1,153 ",$231 ,30,1,0.04,4,1,0
77766,Cozy Harlem Jewel,unconfirmed,Liliana,Manhattan,Harlem,40.8228,-73.93956,TRUE,flexible,Private room,2011,"$1,153 ",$231 ,2,119,3.82,1,1,198
93727,Beautiful huge room with a lovely Bay Window,unconfirmed,Annie,Manhattan,Harlem,40.8282,-73.94973,TRUE,strict,Private room,2009,"$1,153 ",$231 ,30,2,0.16,3,1,0
22508,"5* Views, Terrace, 2BR2B, Modern Luxury, Gym, Roof",verified,B,Queens,Long Island City,40.74834,-73.94181,FALSE,moderate,Entire home/apt,2016,"$1,153 ",$231 ,4,91,3.44,2,2,152
26020,Boutique Hotel-Like Room in Brooklyn With A View,verified,Samantha,Brooklyn,Greenpoint,40.72056,-73.94118,TRUE,flexible,Private room,2003,"$1,153 ",$231 ,2,58,2.82,2,1,0
74910,"Comfy room in large, dog-friendly apt w/ balcony",unconfirmed,Alex,Brooklyn,Williamsburg,40.71036,-73.94053,TRUE,strict,Private room,2009,"$1,153 ",$231 ,2,13,3.25,4,4,25
57027,Spacious NEW Furnished Studio~Prime UES~WD in unit,verified,Eran,Manhattan,Upper East Side,40.77531,-73.94897,TRUE,flexible,Entire home/apt,2008,"$1,153 ",$231 ,30,1,0.63,2,62,327
12311,Apartment in Stuy Town,unconfirmed,Tairan,Manhattan,Stuyvesant Town,40.73288,-73.97984,FALSE,moderate,Private room,2017,"$1,153 ",$231 ,1,1,0.02,5,1,215
29137,Time Square cozy room to dream big,verified,Javier,Manhattan,Hell's Kitchen,40.7661,-73.99447,TRUE,strict,Private room,2014,"$1,153 ",$231 ,3,22,1.2,3,1,13
64766,Large Loft in Williamsburg,unconfirmed,Jessica,Brooklyn,Williamsburg,40.71798,-73.96373,TRUE,moderate,Entire home/apt,2020,"$1,152 ",$230 ,30,9,0.14,2,1,62
62563,The Boogie Down Exchange,unconfirmed,Hezekiah,Bronx,Fordham,40.86303,-73.89839,FALSE,strict,Entire home/apt,2012,"$1,152 ",$230 ,30,9,0.38,5,1,154
11238,Large and cosy room with private insuite bathroom,verified,Diana,Brooklyn,Bedford-Stuyvesant,40.69473,-73.93437,TRUE,moderate,Private room,2006,"$1,152 ",$230 ,2,86,1.9,4,7,258
47057,The Garden Apartment,unconfirmed,Ebony,Brooklyn,Crown Heights,40.67037,-73.92764,TRUE,flexible,Entire home/apt,2011,"$1,152 ",$230 ,4,2,2,3,1,84
36200,Brooklyn House at 443 linden Bedroom 2,verified,Bryan,Brooklyn,East Flatbush,40.65267,-73.94293,FALSE,strict,Private room,2022,"$1,152 ",$230 ,3,10,1.05,3,5,311
99133,Brooklyn House at 443 linden Bedroom 2,verified,Bryan,Brooklyn,East Flatbush,40.65267,-73.94293,FALSE,moderate,Private room,2022,"$1,152 ",$230 ,3,10,1.05,3,5,311
76275,Brand New small 1 Bedroom apt in Brooklyn,unconfirmed,G,Brooklyn,Bath Beach,40.60979,-74.01121,FALSE,flexible,Entire home/apt,2020,"$1,152 ",$230 ,1,38,1.12,1,1,36
24639,Incredible East Village Apartment on St Marks!,unconfirmed,Laila,Manhattan,East Village,40.72759,-73.98466,TRUE,moderate,Entire home/apt,2018,"$1,152 ",$230 ,2,28,1.17,1,1,9
89767,High-ceilinged room in artist loft space -Bushwick,unconfirmed,Freddi,Brooklyn,Bushwick,40.699,-73.92849,TRUE,flexible,Private room,2018,"$1,152 ",$230 ,7,26,0.91,2,2,0
84338,Long Island City Penthouse 1 stop 2 Manhattan,verified,Eileen,Queens,Long Island City,40.74859,-73.93904,TRUE,moderate,Entire home/apt,2012,"$1,152 ",$230 ,30,32,0.84,5,1,157
71463,Room in the heart of Williamsburg!,unconfirmed,Nathaniel,Brooklyn,Williamsburg,40.7122,-73.9511,TRUE,strict,Private room,2020,"$1,152 ",$230 ,1,3,0.06,1,1,0
88711,Dominiques NYC 4Bedrm crashpad**Stay here**metro,unconfirmed,Vie,Bronx,Eastchester,40.88207,-73.83538,FALSE,moderate,Entire home/apt,2009,"$1,152 ",$230 ,2,2,0.18,2,13,358
62216,"Cozy room@Queens! Same area W/Target,Costco, IKEA",unconfirmed,Soya,Queens,Rego Park,40.72419,-73.85812,TRUE,flexible,Private room,2017,"$1,152 ",$230 ,30,1,0.29,4,171,47
35631,"""THE MANHATTAN OASIS"" Penthouse & Private Terrace",verified,Jen,Manhattan,East Village,40.72936,-73.98093,FALSE,flexible,Entire home/apt,2018,"$1,151 ",$230 ,2,35,3.44,3,1,262
53985,Clean / Comfy Family Studio With 3 Double Beds # 5,unconfirmed,Alberto,Manhattan,Midtown,40.74772,-73.98868,FALSE,strict,Entire home/apt,2019,"$1,151 ",$230 ,1,1,1,4,4,249
55155,Clean and cozy apartment,unconfirmed,Julie Ann,Staten Island,Grymes Hill,40.6102,-74.09122,TRUE,moderate,Entire home/apt,2003,"$1,151 ",$230 ,2,65,2.41,4,1,119
3274,Huge 2 Bedrooms NYC,unconfirmed,A,Queens,Astoria,40.76266,-73.91451,FALSE,flexible,Entire home/apt,2009,"$1,151 ",$230 ,1,89,1.32,1,1,213
50748,Cozy room in Bushwick,verified,Elene,Brooklyn,Bushwick,40.70483,-73.9215,FALSE,flexible,Private room,2005,"$1,151 ",$230 ,2,84,1.19,2,3,159
66249,NYC Hideaway Urban Suite,unconfirmed,Christopher,Bronx,Pelham Bay,40.85496,-73.82958,TRUE,strict,Entire home/apt,2021,"$1,151 ",$230 ,2,5,0.12,4,3,149
101256,Beautiful East Village Studio,verified,Nadine,Manhattan,East Village,40.72885,-73.98103,FALSE,strict,Entire home/apt,2021,"$1,151 ",$230 ,7,11,0.39,4,NA,0
49809,Perfect WFH or Staycation in the LES!,unconfirmed,Christian,Manhattan,Lower East Side,40.72091,-73.99012,FALSE,strict,Entire home/apt,2015,"$1,150 ",$230 ,2,123,5.17,3,1,15
74693,Artful UWS Room-2 Double Beds Near Central Park,verified,Arthouse Hotel,Manhattan,Upper West Side,40.78162,-73.97941,TRUE,strict,Private room,2012,"$1,150 ",$230 ,1,1,0.45,2,10,281
19526,Cozy Private Room 1-2people,verified,Tamicka,Queens,Cambria Heights,40.69857,-73.74225,TRUE,moderate,Private room,2022,"$1,150 ",$230 ,1,63,1.95,1,2,0
42086,Artful UWS Room-2 Double Beds Near Central Park,unconfirmed,Arthouse Hotel,Manhattan,Upper West Side,40.78162,-73.97941,FALSE,flexible,Private room,2012,"$1,150 ",$230 ,1,1,0.45,2,10,281
69160,Studio Apt with Masterbedroom and Walk in Closet,verified,J,Manhattan,Hell's Kitchen,40.75594,-73.99283,TRUE,flexible,Entire home/apt,2017,"$1,150 ",$230 ,4,85,0.75,3,3,51
45273,MODERN AND NEWLY 4 BEDS / 2 BATHS IN LUXURY BUILD.,unconfirmed,Kate,Brooklyn,Bushwick,40.6999,-73.92441,FALSE,flexible,Entire home/apt,2022,"$1,150 ",$230 ,4,2,1.4,2,1,355
56318,Mogul Hideout - Modern Lifestyle 5 min from JFK,unconfirmed,Faith,Queens,Laurelton,40.6701,-73.7433,FALSE,flexible,Entire home/apt,2020,"$1,150 ",$230 ,5,70,1.79,5,2,143
22938,"Large Room in Brooklyn Townhouse, Great Location",unconfirmed,Obed,Brooklyn,Fort Greene,40.69063,-73.97195,FALSE,flexible,Private room,2012,"$1,150 ",$230 ,8,6,0.24,5,5,0
35890,Heights V,verified,Candace,Brooklyn,East Flatbush,40.66148,-73.93408,FALSE,strict,Private room,2004,"$1,150 ",$230 ,1,1,0.59,5,6,365
43166,Spacious private bedroom in Washington Heights,unconfirmed,Artem,Manhattan,Washington Heights,40.85513,-73.93305,TRUE,moderate,Private room,2017,"$1,150 ",$230 ,3,5,1.95,4,1,20
68698,Cozy&Quiet One Bedroom Full Unit Near F/G train,unconfirmed,Qingming,Brooklyn,Kensington,40.64099,-73.98029,FALSE,strict,Entire home/apt,2008,"$1,150 ",$230 ,2,32,1.45,2,4,153
67507,Coote Luxe Suite - Modern and Comfortable  APT,verified,Damiso,Brooklyn,Canarsie,40.64264,-73.88936,TRUE,moderate,Entire home/apt,2010,"$1,150 ",$230 ,30,38,1.1,5,1,0
13063,Beautiful Bedroom & Bath For Rent!!,unconfirmed,James,Manhattan,East Harlem,40.79108,-73.94642,FALSE,moderate,Private room,2005,"$1,150 ",$230 ,2,3,0.07,1,1,222
78213,Large Private Apartment in Clinton Hill,,Samuel,Brooklyn,Bedford-Stuyvesant,40.68076,-73.95751,TRUE,moderate,Private room,2010,"$1,150 ",$230 ,5,4,0.14,4,1,0
96853,Sweet little home,unconfirmed,Danielisa,Bronx,Concourse,40.83224,-73.92068,TRUE,flexible,Private room,2004,"$1,149 ",$230 ,5,6,0.52,4,1,188
36909,Studio in Prime Williamsburg w/ Private Balcony,verified,Alan,Brooklyn,Williamsburg,40.70959,-73.96111,TRUE,flexible,Entire home/apt,2010,"$1,149 ",$230 ,1,77,8.95,3,1,77
27611,Modern Whimsical Room,unconfirmed,Rachel,Brooklyn,Crown Heights,40.67433,-73.9248,FALSE,strict,Private room,2005,"$1,149 ",$230 ,4,11,0.56,4,3,0
41206,"Calm, Quiet Space in Bedstuy",verified,Maria,Brooklyn,Bedford-Stuyvesant,40.68735,-73.93118,TRUE,flexible,Private room,2019,"$1,149 ",$230 ,2,2,0.49,5,1,0
55410,Beautiful Terrace Room,unconfirmed,Larry,Brooklyn,Canarsie,40.63883,-73.91748,TRUE,strict,Private room,2011,"$1,149 ",$230 ,4,48,0.53,5,2,338
29785,2 Rooms Available. Heart of Brooklyn.Jacuzzi Bath!,unconfirmed,Jami,Brooklyn,Bedford-Stuyvesant,40.68599,-73.92967,TRUE,moderate,Private room,2017,"$1,149 ",$230 ,2,48,2.81,5,2,12
43423,Cozy private bedroom 15 min from Manhattan,unconfirmed,Kateryna And Tim,Queens,Astoria,40.76769,-73.92564,TRUE,flexible,Private room,2008,"$1,149 ",$230 ,1,11,3.75,3,2,319
38567,Parisian Palace in Heart of Manhattan,verified,Aleszea,Manhattan,Chelsea,40.73734,-73.99327,FALSE,moderate,Entire home/apt,2008,"$1,149 ",$230 ,4,4,1.41,2,1,80
82175,"Labor Day in NYC! Renovated Luxury Apt, Midtown",verified,Laura,Manhattan,Midtown,40.75207,-73.97201,FALSE,strict,Entire home/apt,2012,"$1,149 ",$230 ,3,1,0.04,5,2,0
54763,Shared Room in Manhattan,verified,Mujo,Manhattan,Upper West Side,40.78055,-73.97516,TRUE,flexible,Shared room,2015,"$1,148 ",$230 ,2,21,3.12,3,14,353
52130,Noble House #3,unconfirmed,Jordan,Brooklyn,Greenpoint,40.72871,-73.95776,TRUE,strict,Private room,2012,"$1,148 ",$230 ,3,3,1.2,3,3,45
62004,Signature Lofty Studio in Prime Midtown Location,unconfirmed,Nomad,Manhattan,Midtown,40.74832,-73.98804,TRUE,strict,Entire home/apt,2006,"$1,148 ",$230 ,3,1,0.25,2,53,0
84990,Tudor Studio (Wifi/Premium Cable) w Private Entry,unconfirmed,Louise,Brooklyn,Flatbush,40.64319,-73.96729,FALSE,strict,Entire home/apt,2022,"$1,148 ",$230 ,1,5,0.14,1,3,0
95528,Cozy and modern one Bedroom Apartment,verified,Claudia,Manhattan,Upper East Side,40.77637,-73.95151,FALSE,strict,Entire home/apt,2011,"$1,148 ",$230 ,30,25,2.01,4,1,0
90851,ONLY 4.4 MILES TO MIDTOWN MANHATTAN,unconfirmed,Charles,Queens,Maspeth,40.72344,-73.91052,FALSE,strict,Entire home/apt,2016,"$1,148 ",$230 ,2,51,1.72,5,3,300
100440,Luxurious Penthouse Loft with balcony in West Vil,unconfirmed,Katya,Manhattan,West Village,40.73613,-74.00711,TRUE,flexible,Entire home/apt,2010,"$1,148 ",$230 ,28,2,0.08,3,1,365
54904,Luxurious SOHO 1 Bedroom,verified,Stay With Vibe,Manhattan,Little Italy,40.71902,-73.99572,TRUE,strict,Entire home/apt,2003,"$1,148 ",$230 ,30,21,0.29,4,108,267
82057,BEAUTIFUL PRIVATE ROOM,unconfirmed,Shuly,Queens,Ditmars Steinway,40.77148,-73.90545,TRUE,moderate,Private room,2015,"$1,148 ",$230 ,1,72,3.13,4,8,296
59191,Sun-filled 3 bedroom duplex on tree lined block,verified,Garth,Brooklyn,Clinton Hill,40.68189,-73.96166,TRUE,moderate,Entire home/apt,2014,"$1,148 ",$230 ,4,2,0.86,4,1,16
86636,Beautiful Bldg near Columbia Uni,unconfirmed,Omar,Manhattan,Upper West Side,40.8021,-73.96629,FALSE,strict,Private room,2006,"$1,148 ",$230 ,4,1,0.03,2,1,166
64124,Cozy neighborhood Subway M/R<2min> & 7 Line<5min>,unconfirmed,Soya,Queens,Woodside,40.7481,-73.89825,FALSE,moderate,Private room,2004,"$1,147 ",$229 ,30,1,0.16,3,171,31
3709,"Cozy Room in LIC, 7 min to Times Sq",verified,Alosha,Queens,Long Island City,40.74495,-73.95146,FALSE,strict,Private room,2015,"$1,147 ",$229 ,15,15,0.29,5,2,159
31855,Chic and Cozy Brooklyn Bedroom,verified,Alyssa,Brooklyn,Greenpoint,40.72373,-73.94088,FALSE,flexible,Private room,2021,"$1,147 ",$229 ,3,9,0.69,3,1,365
17947,"Clean, Cozy place to stay- Great Location in NYC!",verified,Kathy,Brooklyn,Sheepshead Bay,40.58672,-73.96502,FALSE,strict,Private room,2012,"$1,147 ",$229 ,3,32,1.24,1,2,42
73440,Chic + Relaxing Vibe + Close to Subway,unconfirmed,Olivia,Brooklyn,Bedford-Stuyvesant,40.68221,-73.92614,TRUE,flexible,Entire home/apt,2020,"$1,147 ",$229 ,3,43,2.63,5,1,29
36458,Middle of Williamsburg-2 stops to Manhattan,verified,Julia,Brooklyn,Williamsburg,40.70813,-73.94707,FALSE,flexible,Private room,2021,"$1,147 ",$229 ,10,1,0.14,3,1,48
67824,Sunny Brooklyn Brownstone apartment,verified,Kristen,Brooklyn,Sunset Park,40.64583,-74.01021,TRUE,flexible,Entire home/apt,2019,"$1,147 ",,30,75,0.97,3,1,92
70892,Historic Townhouse with Private Backyard,unconfirmed,Raymond,Manhattan,Harlem,40.80533,-73.94665,TRUE,strict,Entire home/apt,2010,"$1,147 ",$229 ,1,152,4.54,3,3,248
76679,Awesome apartment in the heart of Soho,verified,Fernanda,Manhattan,SoHo,40.72524,-74.00218,FALSE,strict,Entire home/apt,2022,"$1,147 ",$229 ,5,2,0.06,2,1,0
8095,Sweet Harlem studio,unconfirmed,Sarah,Manhattan,Harlem,40.80373,-73.95523,TRUE,strict,Entire home/apt,2018,"$1,147 ",$229 ,5,5,0.1,4,1,300
19515,Awesome apartment in the heart of Soho,verified,Fernanda,Manhattan,SoHo,40.72524,-74.00218,TRUE,flexible,Entire home/apt,2022,"$1,147 ",$229 ,5,2,0.06,2,1,0
74402,Spacious 3 bedroom apartment in WILLIAMSBURG,unconfirmed,New York Italians,Brooklyn,Williamsburg,40.7077,-73.95332,TRUE,moderate,Private room,2012,"$1,147 ",$229 ,2,13,3.33,4,2,9
43786,2 BDR apt in Brownstone Greenpoint Williamsburg,unconfirmed,Casha,Brooklyn,Greenpoint,40.72599,-73.95498,FALSE,moderate,Private room,2022,"$1,147 ",$229 ,1,8,5.45,3,1,123
3102,Modern Waterfront 2Bed Williamsburg,unconfirmed,Cris,Brooklyn,Williamsburg,40.71817,-73.96401,FALSE,flexible,Entire home/apt,2010,"$1,146 ",$229 ,5,14,0.22,1,1,213
37281,⚡ 3 APT in 1--Large groups Travel & stay together⚡,verified,Andy,Bronx,Williamsbridge,40.87831,-73.86511,TRUE,flexible,Entire home/apt,2021,"$1,146 ",$229 ,2,3,0.41,4,3,323
50956,Brooklyn home  Cozy apartment,unconfirmed,Shirley,Brooklyn,Bath Beach,40.60844,-74.00624,TRUE,moderate,Entire home/apt,2006,"$1,146 ",$229 ,1,71,2.55,4,1,358
37747,Full Comfortable Queens Apartment,verified,Rachel,Queens,Glendale,40.70202,-73.89044,TRUE,strict,Entire home/apt,2004,"$1,146 ",$229 ,3,9,1.53,4,1,3
5618,Cozy and Convenient – Spacious 1 Bedroom Apartment,unconfirmed,Kathisha,Brooklyn,East New York,40.65741,-73.87854,TRUE,strict,Entire home/apt,2018,"$1,146 ",$229 ,3,9,0.16,3,1,315
67638,Private Sun-Splashed Studio Chelsea,unconfirmed,Casey,Manhattan,Chelsea,40.74282,-73.99835,FALSE,strict,Entire home/apt,2009,"$1,146 ",$229 ,30,57,1.41,5,1,0
82506,Your home away from home in New York City.,verified,Nilufer,Queens,Sunnyside,40.73726,-73.92775,TRUE,moderate,Private room,2007,"$1,146 ",$229 ,3,58,2.53,3,3,97
52913,"Williamsburg hip 2bed,2bath. Fun and funky spot",verified,Kim,Brooklyn,Williamsburg,40.71226,-73.95735,TRUE,strict,Entire home/apt,2020,"$1,146 ",$229 ,4,18,2.21,2,1,144
79234,Bed in Family Home Near LGA Airport,verified,Danielle,Queens,East Elmhurst,40.76389,-73.87155,FALSE,moderate,Shared room,2016,"$1,146 ",$229 ,1,224,7.96,4,5,80
33131,Manhattan Mid-town Time Square Cozy Bedroom,verified,槟利,Manhattan,Hell's Kitchen,40.76418,-73.99448,FALSE,moderate,Private room,2012,"$1,146 ",$229 ,2,2,0.17,5,1,0
26855,"Modern, Bright, 2 BR/2 Bath, Clinton Hill, Bklyn",unconfirmed,Abby,Brooklyn,Bedford-Stuyvesant,40.68583,-73.9587,TRUE,strict,Entire home/apt,2018,"$1,146 ",$229 ,4,16,0.77,4,1,144
1901,Spacious Centrally Located Apt!!!,unconfirmed,Joseph,Manhattan,Chelsea,40.7466,-73.99219,TRUE,flexible,Private room,2007,"$1,145 ",$229 ,10,30,0.4,2,1,191
38037,Cheery Chelsea Charmer... best location!,verified,Susanna And Ricki,Manhattan,Chelsea,40.74164,-73.99656,TRUE,strict,Entire home/apt,2013,"$1,145 ",$229 ,3,18,3.44,4,1,51
